_id,Country,State,City,Name,Operator,Status,Address,Power,Size,Established,Latitude,Longitude,Geocode_Level
0,USA,Texas,Dickens,Helios Data Center,Galaxy,,"984 Co Rd 112, Afton, Texas 79220",800 MW,,,33.780636279018,-100.867099886006,address
1,USA,Texas,Fort Stockton,Fort Stockton Clean Campus,Lancium,,"1753 US Hwy 285, Fort Stockton, Texas 79735",325 MW,,,30.905622840006,-102.917046491409,address
2,USA,Texas,Fort Stockton,Project Horizon,Poolside AI,Planned,"5432 Farm-to-Market 1053, Fort Stockton, Texas 79735",2000 MW,,,30.963485361301,-102.848175017942,address
3,USA,Texas,Montgomery Tx,Data Journey The Bunker,Data Journey,,"550 Club Dr., Montgomery, Texas 77316",200 MW,"70,000 sq.f.",1981,30.376981,-95.669244,address
4,USA,Texas,Eagle Pass,MDC Eagle Pass - EGP1,MDC Data Centers,,"464 Bliss St, Eagle Pass, Texas 78852",0.5 MW,"1,500 sq.f.",2023,28.702366731639,-100.502760742633,address
5,USA,Texas,Austin,Data Foundry - Austin 1,Data Foundry,,"7401 East Ben White Blvd, Austin, Texas 78741",,"21,133 sq.f.",2003,30.216361599358,-97.695677121341,address
6,USA,Texas,Austin,Iron Mountain Data Centers Hutto-1,Iron Mountain Data Centers,Planned,"County Rd 404, Hutto, Texas 76574",,,,30.488669,-97.499271,address
7,USA,Texas,Austin,Iron Mountain Data Centers Hutto-4,Iron Mountain Data Centers,Planned,"County Rd 404, Hutto, Texas 76574",,,,30.488669,-97.499271,address
8,USA,Texas,Austin,Bestline Communications,"Bestline Communications, L.P.",,"500 N Capital of Texas Hwy, Bldg 8-200, Austin, Texas 78746",,,,30.309479173212,-97.82620821451,address
9,USA,Texas,Austin,LightEdge - Austin II,LightEdge,,"7000 Burleson Road, Suite 400, Austin, Texas 78744",,,1994,30.199440814924,-97.707103330097,address
10,USA,Texas,Austin,American Tower EDC Austin,American Tower Corporation,,"1601 West 10th Street, Austin, Texas 78703",,,,30.279077093084,-97.759985944263,address
11,USA,Texas,Austin,Project Comal - Bldg 2,KDC,Planned,"1051 County Road 401, Taylor, Texas 76574",,,,30.545228037591,-97.454235383065,address
12,USA,Texas,Austin,Project Comal - Bldg 1,KDC,Planned,"1051 County Road 401, Taylor, Texas 76574",,,,30.545228037591,-97.454235383065,address
13,USA,Texas,Austin,Project Comal - Bldg 3,KDC,Planned,"1051 County Road 401, Taylor, Texas 76574",,,,30.545228037591,-97.454235383065,address
14,USA,Texas,Austin,LightEdge - Austin I,LightEdge,,"2916 Montopolis Drive, Suite 300, Austin, Texas 78741",,,1994,30.214760806278,-97.710875160021,address
15,USA,Texas,Austin,LOGIX Austin,LOGIX FIBER NETWORKS,,"1905 E. 6th Street, Austin, Texas 78702",,,,30.261601136225,-97.722423130259,address
16,USA,Texas,Austin,3911 County Road 305,Unknown Company,Planned,"3911 County Rd 305, Jarrell, Texas 76537",200 MW,,,30.82336852273,-97.642366017923,address
17,USA,Texas,Austin,Rowan Temple,Rowan Digital Infrastructure,Under Construction,"1707-2351 Bob White Rd, Temple, Texas 76501",300 MW,,2027,31.060631170112,-97.296574294952,address
18,USA,Texas,Austin,6682 Farm to Market 535,EdgeConneX,Land Banked,"6682 Farm to Market 535, Bastrop, Texas 78602",,,,30.223530,-97.282650,address
19,USA,Texas,Austin,Rowan Moriah Campus,Rowan Digital Infrastructure,,"2810 Bob White Rd, Temple, Texas 76501",300 MW,,,31.055840976423,-97.297274429563,address
20,USA,Texas,Austin,Riot Patforms Rockdale,"Riot Platforms, Inc.",,"2721 Charles Martin Hall Rd, Thorndale, Texas 76577",700 MW,,2023,30.575900,-97.078860,address
21,USA,Texas,Austin,Project Comal - Bldg 4,KDC,Planned,"1051 County Road 401, Taylor, Texas 76574",,,,30.545228037591,-97.454235383065,address
22,USA,Texas,Austin,Project Comal - Bldg 6,KDC,Planned,"1051 County Road 401, Taylor, Texas 76574",,,,30.545228037591,-97.454235383065,address
23,USA,Texas,Austin,Switch THE ROCK Campus,Switch,Planned,"150 Dell Way, Round Rock, Texas 78682",,,,30.487726,-97.672385,address
24,USA,Texas,Austin,Lumen Austin 4,Lumen,,"2916 Montopolis Dr, Austin, Texas 78741",,,,30.214760806278,-97.710875160021,address
25,USA,Texas,Austin,Data Foundry - The Data Ranch,Data Foundry,,"4100 Smith School Rd, Austin, Texas 78744",60 MW,295000 sq.f.,2011,30.197766393958,-97.71301227238,address
26,USA,Texas,Austin,Lumen Austin 3,Lumen,,"500 B. Chicon Street, Austin, Texas 78702",,,,30.260804808712,-97.722993534053,address
27,USA,Texas,Austin,904 Francis Harris Lane,Unknown Company,Canceled,"904 Francis Harris Ln, San Marcos, Texas 78666",,,,29.789950,-97.995680,address
28,USA,Texas,Austin,Project Comal - Bldg 5,KDC,Planned,"1051 County Road 401, Taylor, Texas 76574",,,,30.545228037591,-97.454235383065,address
29,USA,Texas,Austin,Project Comal Campus,KDC,Planned,"1051 County Road 401, Taylor, Texas 76574",360 MW,,,30.545228037591,-97.454235383065,address
30,USA,Texas,Austin,GTT Austin Data Center,GTT Communications,,"6200 Bridgepoint Parkway, Austin, Texas 78730",,,,30.353893233353,-97.800376577238,address
31,USA,Texas,Austin,Data Foundry - Texas 2,Data Foundry,,"4100 Smith School Rd, Bldg 2, Austin, Texas 78744",36 MW,"165,000 sq.f.",2018,30.197766393958,-97.71301227238,address
32,USA,Texas,Austin,SDC Austin - Building B,Sabey Data Center Properties LLC,Under Construction,"1300 Louis Henna Blvd, Round Rock, Texas 78664",54 MW,,,30.48575752775,-97.650967159813,address
33,USA,Texas,Austin,SDC Austin - Building A,Sabey Data Center Properties LLC,,"1300 Louis Henna Blvd, Round Rock, Texas 78664",,,,30.48575752775,-97.650967159813,address
34,USA,Texas,Austin,Lumen Austin 1,Lumen,,"4207 Smith School Road, Austin, Texas 78744",,,,30.197148070908,-97.713506169284,address
35,USA,Texas,Austin,Cogent Data Center - Austin,"Cogent Communications, Inc.",,"7301 Metro Center Dr, Suite 100, Austin, Texas 78744",6 MW,23227 sq.f.,,30.211256894176,-97.69760092566,address
36,USA,Texas,Austin,Iron Mountain Data Centers Hutto Campus,Iron Mountain Data Centers,Planned,"County Rd 404, Hutto, Texas 76574",,,,30.488669,-97.499271,address
37,USA,Texas,Austin,Thin-nology Data Center,Thin-nology LLC,,"3804 Helios Way, Pflugerville, Texas 78660",2 MW,"5,200 sq.f.",,30.420648691963,-97.59230707894,address
38,USA,Texas,Austin,Data Canopy - Austin Trade Center,Data Canopy,,"6110 Trade Center Dr, Ste 100, Austin, Texas 78744",,60000 sq.f.,,30.20942207169,-97.716848600335,address
39,USA,Texas,Austin,CyrusOne AUS3 - Austin,CyrusOne Data Centers,,"7100 Metropolis Drive, Austin, Texas 78744",24 MW,"120,000 sq.m.",,30.20401267677,-97.706257032126,address
40,USA,Texas,Austin,Iron Mountain Data Centers Hutto-2,Iron Mountain Data Centers,Planned,"County Rd 404, Hutto, Texas 76574",,,,30.488669,-97.499271,address
41,USA,Texas,Austin,Bitdeer Texas,Bitdeer Technologies Group,,"3291 Charles Martin Hall Rd, Rockdale, Texas 76567",563 MW,,2019,30.569703,-97.073108,address
42,USA,Texas,Austin,Data Canopy - Austin Waller,Data Canopy,,"501 Waller St, Austin, Texas 78702",2 MW,"21,000 sq.f.",2004,30.263543618502,-97.730856606766,address
43,USA,Texas,Austin,Blueprint Taylor DC,Blueprint Data Centers,Planned,"1601 E M.L.K. Jr Blvd, Taylor, Texas 76574",60 MW,135000 sq.f.,,30.565926,-97.398167,address
44,USA,Texas,Austin,Skybox Round Rock,Skybox Datacenters,Planned,"2501-2701 E Old Settlers Blvd, Round Rock, Texas 78665",75 MW,250000 sq.f.,,30.543346,-97.648222,address
45,USA,Texas,Austin,Tract Uhland,Tract,Land Banked,"Farm to Market Road 2720, Uhland, Texas 78640",,,,29.969438,-97.638796,address
46,USA,Texas,Austin,7500 Metro Center Drive (AUS11),Digital Realty,,"7500 Metro Center Drive, Austin, Texas 78744",4.2 MW,"31,600 sq.f.",2001,30.211550287659,-97.695618461923,address
47,USA,Texas,Austin,Skybox Austin,Skybox Datacenters,,"600 New Meister Ln, Pflugerville, Texas 78660",30 MW,"53,245 sq.f.",,30.482199,-97.623078,address
48,USA,Texas,Austin,Blueprint Georgetown DC,Blueprint Data Centers,Planned,"1201 Westinghouse Rd, Georgetown, Texas 78626",25 MW,45000 sq.f.,,30.585200,-97.675094,address
49,USA,Texas,Austin,Iron Mountain Data Centers Hutto-5,Iron Mountain Data Centers,Planned,"County Rd 404, Hutto, Texas 76574",,,,30.488669,-97.499271,address
50,USA,Texas,Austin,Colovore Hutto,Colovore,Planned,"2351 Innovation Blvd, Hutto, Texas 78634",,180000 sq.f.,,30.547095408563,-97.572827769315,address
51,USA,Texas,Austin,Core Scientific Austin,Core Scientific,,"3301 Hibbetts Rd, Austin, Texas 78725",16 MW,"118,000 sq.f.",2024,30.267053061703,-97.66983269128,address
52,USA,Texas,Austin,Iron Mountain Data Centers Hutto-3,Iron Mountain Data Centers,Planned,"County Rd 404, Hutto, Texas 76574",,,,30.488669,-97.499271,address
53,USA,Texas,Austin,CyrusOne AUS2 - Austin,CyrusOne Data Centers,,"7301 Metropolis Dr, Bldg #6, Austin, Texas 78703",9 MW,"41,000 sq.f.",,30.203936675028,-97.706157799188,address
54,USA,Texas,Austin,Element Critical Austin One,Element Critical,,"8025 North Interstate Hwy 35, Austin, Texas 78753",5 MW,"62,300 sq.f.",,30.342695,-97.696266,address
55,USA,Texas,Austin,DataBank AUS1 - Austin,DataBank,,"7218 McNeil Dr, Suite 300, Austin, Texas 78729",0.405 MW,"7,870 sq.f.",,30.435717631293,-97.765596986917,address
56,USA,Texas,Austin,EdgeConneX Austin - EDCAUS02,EdgeConneX,Planned,"8001 Wolf Ln, Cedar Creek, Texas 78612",240 MW,,,30.086313,-97.501342,address
57,USA,Texas,Austin,Connect Temple,Connect Data Centers by Oppidan,Planned,"2325 Eberhardt Rd, Temple, Texas 76504",5 MW,61500 sq.f.,2026,31.126053978386,-97.359815756944,address
58,USA,Texas,Austin,Lumen Austin 2,Lumen,,"1825-A Kramer Lane, Austin, Texas 78758",,,,30.386873930732,-97.706675700779,address
59,USA,Texas,Austin,SDC Austin Campus,Sabey Data Center Properties LLC,,"1300 Louis Henna Blvd, Round Rock, Texas 78664",84 MW,430000 sq.f.,,30.48575752775,-97.650967159813,address
60,USA,Texas,Austin,Project Hutto,Zydeco Development,Planned,"Co Rd 119 & Limmer Loop, Hutto, Texas 78634",70 MW,,,30.557163720981,-97.55913290567,address
61,USA,Texas,Austin,Data Foundry - Texas 1,Data Foundry,,"4100 Smith School Road, Bldg 1, Austin, Texas 78744",24 MW,130000 sq.f.,2011,30.197766393958,-97.71301227238,address
62,USA,Texas,Austin,SDC San Marcos,Sabey Data Center Properties LLC,Planned,"Center Point Rd & S Old Bastrop Hwy, San Marcos, Texas 78666",,,,29.812865,-97.967742,address
63,USA,Texas,Austin,Prime Austin,Prime Data Centers,Land Banked,"FM2720 & Bobwhite Rd, Maxwell, Texas 78656",,,,29.924319852341,-97.754329387351,address
64,USA,Texas,Austin,Iron Mountain Data Centers Hutto-6,Iron Mountain Data Centers,Planned,"County Rd 404, Hutto, Texas 76574",,,,30.488669,-97.499271,address
65,USA,Texas,Austin,Iron Mountain Data Centers Hutto-7,Iron Mountain Data Centers,Planned,"County Rd 404, Hutto, Texas 76574",,,,30.488669,-97.499271,address
66,USA,Texas,The Woodlands,Optiquest Datacenter,Optimum Computer Solutions (OCS),,"780 Westridge Dr, Spring, Texas 77380",,,,30.120760112429,-95.454752957833,address
67,USA,Texas,San Angelo,"SANG-TX (San Angelo, Texas)",Cloudnium LLC.,,"2701 S Johnson St., San Angelo, Texas 76904",7.8 MW,,2023,31.432761372099,-100.463103298553,address
68,USA,Texas,San Angelo,Skybox San Angelo,Skybox Datacenters,Planned,"North US Highway 67, San Angelo, Texas 76905",,,,31.544369,-100.313645,address
69,USA,Texas,Bryan,"FIBERTOWN - Bryan, Texas",FIBERTOWN,,"110 North Main, Bryan, Texas 77803",,"25,000 sq.f.",1997,30.673880332439,-96.373411075559,address
70,USA,Texas,Tyler,Tyler Vault Data Center,Tyler Vault.com,,"110 N College Ave, Tyler, Texas 75702",,"1,100 sq.f.",,32.350892905521,-95.301708705577,address
71,USA,Texas,Tyler,Barrio Energy - Tyler,Barrio Energy,Under Construction,"1105 W Erwin St, Tyler, Texas 75702",12 MW,,,32.350738743907,-95.312443116177,address
72,USA,Texas,Sweetwater,IREN Sweetwater 2,IREN (Iris Energy),Under Construction,"1782 Farm-to-Market 540, Hamlin, Texas 79520",600 MW,,,32.925320,-100.216660,address
73,USA,Texas,Sweetwater,IREN Sweetwater 1,IREN (Iris Energy),Under Construction,"883 Farm-to-Market 611, Sweetwater, Texas 79556",1400 MW,,,32.627981611171,-100.547239169594,address
74,USA,Texas,Nacogdoches,NacSpace Data Center,NacSpace.com,,"2400 North Stallings Drive, Nacogdoches, Texas 75964",,,,31.652301814473,-94.674184330807,address
75,USA,Texas,Dallas,1502 Ferris Rd,Digital Realty,Planned,"1502 Ferris Rd, Garland, Texas 75044",8 MW,"410,000 sq.f.",,32.975131801053,-96.649927262257,address
76,USA,Texas,Dallas,ACS Fort Worth - Building A,Grupo ACS,Planned,"10121 Hicks Field Rd, Fort Worth, Texas 76179",,,,32.908121515079,-97.400714029111,address
77,USA,Texas,Dallas,Rackspace Dallas 2,Rackspace Hosting,,"1215 Integrity Drive, Richardson, Texas 75081",14 MW,"56,179 sq.f.",,32.964890,-96.715715,address
78,USA,Texas,Dallas,Skybox Atlantic Station,Skybox Datacenters,,"2300 W Plano Pkwy, Plano, Texas 75075",100 MW,,,33.007247921582,-96.737609299753,address
79,USA,Texas,Dallas,Lumen Dallas,Lumen,,"3180 Irving Blvd., Dallas, Texas 75247",,,,32.807780964841,-96.867232828641,address
80,USA,Texas,Dallas,907 Security Row (DFW35),Digital Realty,,"907 Security Row, Richardson, Texas 75081",9.6 MW,"50,800 sq.f.",2014,32.964263241729,-96.710597857428,address
81,USA,Texas,Dallas,ColoCrossing DFW1,ColoCrossing,,"3004 Irving Blvd, Dallas, Texas 75247",11.1 MW,"64,000 sq.f.",2000,32.807919,-96.857292,address
82,USA,Texas,Dallas,Epic.io Dallas Data Center,Epic.io,,"1526 Viceroy Dr, Dallas, Texas 75235",,,,32.833386449195,-96.870973755411,address
83,USA,Texas,Dallas,STACK Infrastructure,STACK INFRASTRUCTURE,,"1950 N Stemmons Freeway, Dallas, Texas 75207",,,,32.801543581919,-96.823828523262,address
84,USA,Texas,Dallas,Lumen Dallas 2,Lumen,,"1950 Stemmons Freeway, Dallas, Texas 75207",,,,32.801543581919,-96.823828523262,address
85,USA,Texas,Dallas,Edged Dallas-Fort Worth DFW01-1,Edged Energy,,"505 N Wildwood Dr, Irving, Texas 75061",24 MW,162545 sq.f.,2025,32.817506982326,-96.916929381504,address
86,USA,Texas,Dallas,Aligned DFW-04,Aligned Data Centers,Planned,"601 North Star Rd, Plano, Texas 75074",,425500 sq.f.,,33.005850,-96.657380,address
87,USA,Texas,Dallas,Alpha Data Center,M&A Technology Inc.,,"4407 Alpha Road, Dallas, Texas 75244",2 MW,"6,500 sq.f.",2005,32.933163395951,-96.834716002159,address
88,USA,Texas,Dallas,4099 Hereford Street,Frasier Cole,Land Banked,"4099 Hereford St, Glen Rose, Texas 76043",,,,32.270630953198,-97.799699743318,address
89,USA,Texas,Dallas,8435 Stemmons Freeway (DFW36),Digital Realty,,"8435 Stemmons Freeway, Dallas, Texas 75247",1.2 MW,"11,000 sq.f.",2008,32.827973376275,-96.87344378793,address
90,USA,Texas,Dallas,STACK Infrastructure DFW02 Campus,STACK INFRASTRUCTURE,Under Construction,"E Belt Line Road, Lancaster, Texas 75146",216 MW,,,32.586328,-96.733972,address
91,USA,Texas,Dallas,Google Midlothian Campus,Google,,"3441 Railport Pkwy, Midlothian, Texas 76065",,,2019,32.448927895772,-97.056815922356,address
92,USA,Texas,Dallas,Edged Dallas-Fort Worth DFW01 Campus,Edged Energy,,"505 N Wildwood Dr, Irving, Texas 75061",,,,32.817506982326,-96.916929381504,address
93,USA,Texas,Dallas,Equinix DA12-1,Equinix,Planned,"1550 W Mockingbird Ln, Dallas, Texas 75235",,,2027,32.822198616705,-96.860132862239,address
94,USA,Texas,Dallas,IBM DAL04,IBM,,"400 Akard St, Dallas, Texas 75202",,,,32.778405770928,-96.798998169898,address
95,USA,Texas,Dallas,Csquare - Dallas DFW1,Csquare,,"14901 FAA Blvd, Fort Worth, Texas 76155",,"189,000 sq.f.",,32.832435,-97.040755,address
96,USA,Texas,Dallas,Lincoln Red Oak Campus,Lincoln Property Company,Planned,"Texas along the newly opened Loop 9 highway, Red Oak, Texas 75154",540 MW,"800,000 sq.f.",,32.531793,-96.804855,address
97,USA,Texas,Dallas,Equinix DA2,Equinix,,"1950 North Stemmons Freeway, Suite 2027, Dallas, Texas 75207",,"24,541 sq.f.",,32.801543581919,-96.823828523262,address
98,USA,Texas,Dallas,DataBank Red Oak Campus,DataBank,Planned,"Batchler Rd & Stainback Rd, Red Oak, Texas 75154",,,,32.533878306841,-96.735147005902,address
99,USA,Texas,Dallas,Lumen Dallas,Lumen,,"1150 Regal Row, Dallas, Texas 75247",,,,32.82868071606,-96.884188773206,address
100,USA,Texas,Dallas,Prime Dallas - Data Center 2,Prime Data Centers,Planned,"1517 Round Table, Dallas, Texas 75247",12 MW,"34,400 sq.f.",,32.837524593722,-96.879347679098,address
101,USA,Texas,Dallas,GDC - Dallas TX1 Data Center,"NTT DATA, Inc.",,"2008 Lookout Drive, Garland, Texas 75044",16 MW,"230,000 sq.f.",2017,32.982469265755,-96.659647517443,address
102,USA,Texas,Dallas,DataBank DFW11 - Red Oak,DataBank,Planned,"Batchler Rd & Stainback Rd, Red Oak, Texas 75154",,,,32.533878306841,-96.735147005902,address
103,USA,Texas,Dallas,DataBank DFW2 - North Dallas,DataBank,,"904 Quality Way, Dallas, Texas 75801",5.7 MW,"41,320 sq.f.",2013,32.966325,-96.711187,address
104,USA,Texas,Dallas,1232 Alma Road (DFW16),Digital Realty,,"1232 Alma Road, Richardson, Texas 75081",6.7 MW,"49,900 sq.f.",,32.963480007522,-96.717178361074,address
105,USA,Texas,Dallas,IBM DAL02/06,IBM,,"1333 North Stemmons Freeway, Suite 110, Dallas, Texas 75207",,,,32.788972483954,-96.813784359462,address
106,USA,Texas,Dallas,Lumen Fort Worth 2,Lumen,,"1101 E 9th St, Fort Worth, Texas 76102",,,,32.749701577369,-96.807934753415,address
107,USA,Texas,Dallas,1000 Coit Road,Lincoln Property Company,,"1000 Coit Rd, Plano, Texas 75075",,,,33.011707716343,-96.766609590998,address
108,USA,Texas,Dallas,Meta Fort Worth Data Center,Meta,,"4500 Like Way, Fort Worth, Texas 76177",,,,32.883615917607,-96.808296246078,address
109,USA,Texas,Dallas,PowerHouse Grand Prairie,PowerHouse Data Centers,Planned,"881 Miller Rd, Midlothian, Texas 76065",,,,32.479269061472,-97.056567639615,address
110,USA,Texas,Dallas,Equinix DA11,Equinix,,"1990 North Stemmons Freeway, Dallas, Texas 75207",,"144,000 sq.f.",2020,32.801683023303,-96.824289212658,address
111,USA,Texas,Dallas,Compass Red Oak - 300 Houston School Rd,Compass Datacenters,,"300 Houston School Rd, Red Oak, Texas 75154",,,,32.53821200729,-96.805262729567,address
112,USA,Texas,Dallas,Equinix DA12 Campus,Equinix,Planned,"1550 W Mockingbird Ln, Dallas, Texas 75235",,,,32.822198616705,-96.860132862239,address
113,USA,Texas,Dallas,365 Data Centers - Richardson,365 Data Centers,,"365 Data Centers, 1001 East Campbell Road, Richardson, Texas 75081",6.2 MW,,,32.976149,-96.707491,address
114,USA,Texas,Dallas,2440 Marsh Lane (DFW12),Digital Realty,,"2440 Marsh Lane, Carrollton, Texas 75006",6.7 MW,"69,800 sq.f.",1998,32.979913360675,-96.85551664628,address
115,USA,Texas,Dallas,QTS South Dallas DC7,QTS Data Centers,Planned,"1341 Sunrise Rd, Wilmer, Texas 75146",,,,32.574113672269,-96.697233959354,address
116,USA,Texas,Dallas,CyrusOne DFW17 - Whitney,CyrusOne Data Centers,Planned,"557 County Rd 3610, Whitney, Texas 76692",,88875 sq.f.,2026,31.940076772999,-97.325080798141,address
117,USA,Texas,Dallas,Edged Dallas-Fort Worth DFW01-2,Edged Energy,Planned,"N Wildwood Dr, Irving, Texas 75061",24 MW,,,32.820511,-96.916867,address
118,USA,Texas,Dallas,H5Colo  Inc.,H5 Colo Inc.,,"12712 Park Central Dr, Suite 200, Dallas, Texas 75251",,"20,000 sq.f.",2008,32.920330667869,-96.776916690776,address
119,USA,Texas,Dallas,QTS South Dallas DC3,QTS Data Centers,Under Construction,"303 Mason Rd, Lancaster, Texas 75146",,,2027,32.583084,-96.692126,address
120,USA,Texas,Dallas,Provision Data Services,Provision Data Services,,"2020 Live Oak, Dallas, Texas 75201",,,,32.783768736081,-96.795046847413,address
121,USA,Texas,Dallas,PowerHouse Irving - Building B,PowerHouse Data Centers,Planned,"111 Customer Way, Irving, Texas 75039",67 MW,,,32.885658434327,-96.93430748095,address
122,USA,Texas,Dallas,CyrusOne DFW6 - Richardson,CyrusOne Data Centers,Under Construction,"1510 E Lookout Dr, Richardson, Texas 75082",,"125,000 sq.f.",,32.98536488783,-96.695234569529,address
123,USA,Texas,Dallas,Hivelocity - Dallas 1,Hivelocity,,"1515 Round Table Dr, Dallas, Texas 75247",,"68,500 sq.f.",,32.837509927436,-96.879424269717,address
124,USA,Texas,Dallas,PowerHouse Irving - Building C,PowerHouse Data Centers,Planned,"111 Customer Way, Irving, Texas 75039",67 MW,,,32.885658434327,-96.93430748095,address
125,USA,Texas,Dallas,TPx Dallas Data Center,TPx Communications,,"717 N Harwood St, Suite 105, Dallas, Texas 75201",,,,32.785594508378,-96.797767385053,address
126,USA,Texas,Dallas,DataBank DFW10 - Red Oak,DataBank,Planned,"Batchler Rd & Stainback Rd, Red Oak, Texas 75154",60 MW,200000 sq.f.,,32.533878306841,-96.735147005902,address
127,USA,Texas,Dallas,QTS Irving DC3,QTS Data Centers,,"6351 Longhorn Drive, Irving, Texas 75063",43 MW,,,32.894651010098,-96.980243155947,address
128,USA,Texas,Dallas,STACK Infrastructure DFW01B,STACK INFRASTRUCTURE,,"6715 Pinecrest Dr, Plano, Texas 75024",11 MW,,,33.065252893637,-96.809244823862,address
129,USA,Texas,Dallas,CyrusOne DFW7 - Fort Worth,CyrusOne Data Centers,Under Construction,"Asphalt Dr, Fort Worth, Texas 76179",,,,32.904032,-97.400164,address
130,USA,Texas,Dallas,Lumen Dallas 4,Lumen,,"400 S Akrad, Dallas, Texas 75202",,,,32.778405770928,-96.798998169898,address
131,USA,Texas,Dallas,LightEdge - Dallas,LightEdge,,"2501 State Hwy 121, Building 5, Suite 500, Lewisville, Texas 75067",,,,32.794635288483,-96.801252192488,address
132,USA,Texas,Dallas,Vantage Frontier - Shackelford County,Vantage Data Centers,Under Construction,"TX-351 & Farm to Market Road 604, Abilene, Texas 79601",1400 MW,3700000 sq.f.,,32.552036,-99.565243,address
133,USA,Texas,Dallas,QumulusAI Denton,QumulusAI,Planned,"750 Precision Dr, Denton, Texas 76207",20 MW,,,33.209142382571,-97.173469566669,address
134,USA,Texas,Dallas,Lumen Dallas 3,Lumen,,"1201 Main Street, Dallas, Texas 75202",,,,32.780250444073,-96.801289261722,address
135,USA,Texas,Dallas,Project Orange,Unknown Company,Planned,"201 Sunrise Road, Lancaster, Texas 75146",252 MW,1586410 sq.f.,,32.603768996565,-96.70491202046,address
136,USA,Texas,Dallas,VAZATA Dallas I,VAZATA,,"4025 Midway Road, Carrollton, Texas 75007",3.3 MW,"25,000 sq.f.",2008,33.021332206857,-96.84362028382,address
137,USA,Texas,Dallas,Psychz Dallas,Psychz Networks,,"1515 Roundtable Dr, Dallas, Texas 75457",,,,32.837509927436,-96.879424269717,address
138,USA,Texas,Dallas,LOGIX Fort Worth,LOGIX FIBER NETWORKS,,"307-309 West 7th St, Fort Worth, Texas 76102",,,,32.74899056561,-96.826666747212,address
139,USA,Texas,Dallas,CyrusOne DFW4 - Allen,CyrusOne Data Centers,Planned,"2300 Chelsea Boulevard, Allen, Texas 75013",,,,33.137232556725,-96.663332409777,address
140,USA,Texas,Dallas,Cologix DAL2,Cologix,,"1950 North Stemmons Freeway, Suite 2010, Dallas, Texas 75207",,,,32.801543581919,-96.823828523262,address
141,USA,Texas,Dallas,Neutron Data Center,M&A Technology Inc.,,"13616 Neutron Road, Dallas, Texas 75244",,,,32.933479720925,-96.83490398897,address
142,USA,Texas,Dallas,Google Midlothian - Bldg 5,Google,Under Construction,"3441 Railport Pkwy, Midlothian, Texas 76065",,288000 sq.f.,2027,32.448927895772,-97.056815922356,address
143,USA,Texas,Dallas,QTS South Dallas DC2,QTS Data Centers,Under Construction,"303 Mason Rd, Lancaster, Texas 75146",,,2026,32.583084,-96.692126,address
144,USA,Texas,Dallas,2323 Bryan Street (DFW10),Digital Realty,,"2323 Bryan Street, Dallas, Texas 75201",3.8 MW,"40,100 sq.f.",1982,32.786929610022,-96.79401789536,address
145,USA,Texas,Dallas,Windstream Dallas,Windstream,,"600 N Pearl St, Dallas, Texas 75201",,,,32.787031,-96.795371,address
146,USA,Texas,Dallas,Evocative DAL1,Evocative Data Centers,,"2800 Summit Ave, Plano, Texas 75074",30 MW,,,33.009776426561,-96.678415144762,address
147,USA,Texas,Dallas,Equinix DA6,Equinix,,"1950 North Stemmons Freeway, Suite 3050, Dallas, Texas 75207",,"71,612 sq.f.",,32.801543581919,-96.823828523262,address
148,USA,Texas,Dallas,608 Young Street,Unknown Company,Planned,"608 Young St, Dallas, Texas 75202",,,,32.775985947705,-96.805948831145,address
149,USA,Texas,Dallas,Google Midlothian - Bldg 1,Google,,"3441 Railport Pkwy, Midlothian, Texas 76065",,282000 sq.f.,2019,32.448927895772,-97.056815922356,address
150,USA,Texas,Dallas,CyrusOne DFW11 - Whitney,CyrusOne Data Centers,Planned,"557 County Rd 3610, Whitney, Texas 76692",,88875 sq.f.,2027,31.940076772999,-97.325080798141,address
151,USA,Texas,Dallas,STACK Infrastructure DFW02B,STACK INFRASTRUCTURE,Planned,"E Belt Line Road, Building 2, Lancaster, Texas 75146",36 MW,,,32.586328,-96.733972,address
152,USA,Texas,Dallas,DataBank - 2323 Bryan St,DataBank,,"2323 Bryan St, Dallas, Texas 75201",,,,32.786929610022,-96.79401789536,address
153,USA,Texas,Dallas,4849 Alpha Road (DFW14),Digital Realty,,"4849 Alpha Road, Dallas, Texas 75244",4.5 MW,"31,000 sq.f.",1999,32.933157530732,-96.824598891647,address
154,USA,Texas,Dallas,QTS Irving Campus,QTS Data Centers,,"6431 Longhorn Drive, Irving, Texas 75063",175 MW,,,32.895974347996,-96.981237823225,address
155,USA,Texas,Dallas,Cogent Data Center - Irving,"Cogent Communications, Inc.",,"2511 E Grauwyler Rd, Irving, Texas 75061",1.6 MW,"19,212 sq.f.",,32.830772589443,-96.907447313932,address
156,USA,Texas,Dallas,900 Quality Way (DFW17),Digital Realty,,"900 Quality Way, Richardson, Texas 75081",6.9 MW,"58,000 sq.f.",,32.966738570221,-96.714401622951,address
157,USA,Texas,Dallas,Data Canopy - Dallas,Data Canopy,,"1807 Ross Avenue, Dallas, Texas 75201",,,,32.786224379689,-96.800177236795,address
158,USA,Texas,Dallas,DataBank DFW9 - Red Oak,DataBank,Planned,"Batchler Rd & Stainback Rd, Red Oak, Texas 75154",60 MW,200000 sq.f.,,32.533878306841,-96.735147005902,address
159,USA,Texas,Dallas,Equinix DA3,Equinix,,"1950 North Stemmons Freeway, Suites 1039A & 2048, Dallas, Texas 75207",,"25,865 sq.f.",,32.801543581919,-96.823828523262,address
160,USA,Texas,Dallas,GIPNetworks Plano,Plano Data Center | Global IP Networks,,"1009 Jupiter Rd, Suite 500, Plano, Texas 75074",,,,33.012485,-96.683083,address
161,USA,Texas,Dallas,Synoptek - Dallas Data Center,Synoptek,,"2323 Bryan Street, Suite 1150-A, Dallas, Texas 75201",,"4,300 sq.f.",,32.786929610022,-96.79401789536,address
162,USA,Texas,Dallas,Nexus Hubbard Campus,Nexus Data Centers,Planned,"880 State Hwy 171, Hubbard, Texas 76648",612 MW,,,31.824000576602,-96.776242761148,address
163,USA,Texas,Dallas,Prometheus TX-1,Prometheus Hyperscale,Planned,"6998 Farm to Market 987, Terrell, Texas 75160",200 MW,,,32.6609613202,-96.347704609302,address
164,USA,Texas,Dallas,Flexential Dallas - Richardson Data Center,Flexential,,"3010 Waterview Parkway, Richardson, Texas 75080",3.75 MW,,,32.993286046303,-96.756173865295,address
165,USA,Texas,Dallas,ScaleMatrix Dallas,ScaleMatrix,,"820 Allen Commerce Pkwy, Allen, Texas 75013",12 MW,,2017,33.137141913502,-96.661342631579,address
166,USA,Texas,Dallas,QTS Fort Worth 1 DC1,QTS Data Centers,,"14100 Park Vista Boulevard, Fort Worth, Texas 76177",50 MW,,,32.981369968074,-97.262720866769,address
167,USA,Texas,Dallas,DataBank DFW7 - Dallas LBJ,DataBank,,"6606 Lyndon B Johnson Fwy, Suite 145, Dallas, Texas 75240",0.94 MW,"16,070 sq.f.",,32.924431699573,-96.791726211492,address
168,USA,Texas,Dallas,Project Labrador,Unknown Company,Planned,"1401 Greene Road, Lancaster, Texas 75146",,1078950 sq.f.,,32.595198590679,-96.730535023075,address
169,USA,Texas,Dallas,CyrusOne DFW1 - Carrollton,CyrusOne Data Centers,,"1649 Frankfort Road West, Carrollton, Texas 75007",90 MW,"400,000 sq.f.",,32.994965147237,-96.930483914641,address
170,USA,Texas,Dallas,CyrusOne DFW3 - Allen,CyrusOne Data Centers,,"2300 Chelsea Blvd, Allen, Texas 75013",50 MW,"60,000 sq.f.",,33.137232556725,-96.663332409777,address
171,USA,Texas,Dallas,Aligned DFW-02,Aligned Data Centers,,"2800 Summit Avenue, Plano, Texas 75074",36 MW,,,33.009776426561,-96.678415144762,address
172,USA,Texas,Dallas,ColoHouse Dallas,ColoHouse,,"1649 West Frankford Road, Dallas, Texas 75007",60 MW,"400,000 sq.f.",,32.994965147237,-96.930483914641,address
173,USA,Texas,Dallas,1215 Integrity Drive (DFW25),Digital Realty,,"1215 Integrity Drive, Richardson, Texas 75081",6.9 MW,"56,500 sq.f.",2011,32.964890,-96.715715,address
174,USA,Texas,Dallas,Google Midlothian - Bldg 4,Google,,"3441 Railport Pkwy, Midlothian, Texas 76065",,170600 sq.f.,2024,32.448927895772,-97.056815922356,address
175,USA,Texas,Dallas,Flexential Dallas - Downtown Data Center,Flexential,,"1950 Stemmons Freeway, Suite 2033, Dallas, Texas 75207",6.66 MW,,,32.801543581919,-96.823828523262,address
176,USA,Texas,Dallas,Csquare - Dallas DFW3-A,Csquare,,"11830 Webb Chapel Rd., Suite 200, Dallas, Texas 75234",10 MW,"95,245 sq.f.",,32.91021773245,-96.872666872294,address
177,USA,Texas,Dallas,CyrusOne DFW10 - Whitney,CyrusOne Data Centers,Planned,"557 County Rd 3610, Whitney, Texas 76692",,"250,000 sq.f.",2026,31.940076772999,-97.325080798141,address
178,USA,Texas,Dallas,Stream DC DFWC1,Stream Data Centers,Planned,"930 N Sunrise Rd, Wilmer, Texas 75172",48 MW,360750 sq.f.,2027,32.588249,-96.704989,address
179,USA,Texas,Dallas,904 Quality Way (DFW21),Digital Realty,,"904 Quality Way, Richardson, Texas 75081",,"62,600 sq.f.",,32.966737497487,-96.714197626288,address
180,USA,Texas,Dallas,Mobius Partners - Farmers Branch,Mobius Partners,,"4215 N. Beltwood Pkwy, Farmers Branch, Texas 75244",,,,32.949292471535,-96.837016165571,address
181,USA,Texas,Dallas,ACS Fort Worth - Building D,Grupo ACS,Planned,"1645 Hicks Field Rd E, Fort Worth, Texas 76179",,,,32.912576968059,-97.395224763528,address
182,USA,Texas,Dallas,850 E. Collins Boulevard (DFW28),Digital Realty,,"850 E. Collins Boulevard, Richardson, Texas 75081",6.8 MW,"60,500 sq.f.",2012,32.967923888487,-96.714100351298,address
183,USA,Texas,Dallas,STACK Infrastructure DFW01C,STACK INFRASTRUCTURE,Planned,"5601 W Spring Creek Pkwy, Plano, Texas 75024",48 MW,406000 sq.f.,,33.061438393297,-96.811122438337,address
184,USA,Texas,Dallas,CyrusOne DFW17B - Whitney,CyrusOne Data Centers,Planned,"557 County Rd 3610, Whitney, Texas 76692",,249090 sq.f.,2027,31.940076772999,-97.325080798141,address
185,USA,Texas,Dallas,LOGIX Dallas #1,LOGIX FIBER NETWORKS,,"2323 Bryan St, Suite 850, Dallas, Texas 75201",,,,32.786929610022,-96.79401789536,address
186,USA,Texas,Dallas,CyrusOne Whitney Campus,CyrusOne Data Centers,Planned,"557 County Rd 3610, Whitney, Texas 76692",400 MW,,,31.940076772999,-97.325080798141,address
187,USA,Texas,Dallas,908 Quality Way (DFW20),Digital Realty,,"908 Quality Way, Richardson, Texas 75081",10 MW,"38,000 sq.f.",,32.966736424752,-96.713993629626,address
188,USA,Texas,Dallas,STACK Infrastructure DFW02C,STACK INFRASTRUCTURE,Planned,"E Belt Line Road, Building 3, Lancaster, Texas 75146",36 MW,,,32.586328,-96.733972,address
189,USA,Texas,Dallas,CyrusOne DFW17C - Whitney,CyrusOne Data Centers,Planned,"557 County Rd 3610, Whitney, Texas 76692",,93320 sq.f.,2027,31.940076772999,-97.325080798141,address
190,USA,Texas,Dallas,ACS Fort Worth - Building C,Grupo ACS,Planned,"Hillwood Blvd, Fort Worth, Texas 76179",,,,32.857925,-97.362129,address
191,USA,Texas,Dallas,Serverphase Data Center,M&A Technology Inc.,,"2045 Chenault Drive, Carrollton, Texas 75006",2 MW,"10,000 sq.f.",2008,32.963905255123,-96.844930728347,address
192,USA,Texas,Dallas,Datacenter Park - Dallas,Digital Realty,,"900-908 Quality Way, Richardson, Texas 75081",,,,32.966736424752,-96.713993629626,address
193,USA,Texas,Dallas,Stream DC DFWC - Wilmer II Campus,Stream Data Centers,Planned,"930 Sunrise Rd, Lancaster, TX, USA, Wilmer, Texas 75146",240 MW,1400000 sq.f.,,32.580966,-96.702436,address
194,USA,Texas,Dallas,1702 W Campbell Rd,Digital Realty,Planned,"1702 W Campbell Rd, Garland, Texas 75044",,,,32.975565066636,-96.653682401536,address
195,USA,Texas,Dallas,2501 S. State Highway 121 (DFW26),Digital Realty,,"2501 S. State Highway 121, Lewisville, Texas 75056",,"831,300 sq.f.",1979,33.054389459074,-96.915198725532,address
196,USA,Texas,Dallas,Lunavi Dallas,Lunavi,,"1950 North Stemmons Fwy, Suite 1039A, Dallas, Texas 75207",,,2017,32.801543581919,-96.823828523262,address
197,USA,Texas,Dallas,Eonix Communications Dallas,Eonix Communications Inc,,"1515 Round Table Drive, Dallas, Texas 75207",,,,32.837509927436,-96.879424269717,address
198,USA,Texas,Dallas,Cogent Data Center - Fort Worth,"Cogent Communications, Inc.",,"1400 E Presidio St, Fort Worth, Texas 76102",5 MW,"110,078 sq.f.",,32.74498799598,-97.314786725787,address
199,USA,Texas,Dallas,DataBank DFW12 - Red Oak,DataBank,Planned,"Batchler Rd & Stainback Rd, Red Oak, Texas 75154",,,,32.533878306841,-96.735147005902,address
200,USA,Texas,Dallas,PowerHouse Irving - Building A,PowerHouse Data Centers,Under Construction,"111 Customer Way, Irving, Texas 75039",67 MW,,,32.885658434327,-96.93430748095,address
201,USA,Texas,Dallas,Tierpoint Dallas-Allen,TierPoint,,"820 Allen Commerce Parkway, Allen, Texas 75013",,"16,000 sq.f.",2017,33.137141913502,-96.661342631579,address
202,USA,Texas,Dallas,STACK Infrastructure DFW02A,STACK INFRASTRUCTURE,Under Construction,"E Belt Line Road, Building 1, Lancaster, Texas 75146",36 MW,,,32.586328,-96.733972,address
203,USA,Texas,Dallas,Flexential Dallas - Plano Data Center,Flexential,,"3500 E Plano Pkwy, Plano, Texas 75074",18 MW,,2016,33.006959918675,-96.669644171351,address
204,USA,Texas,Dallas,VAZATA Dallas II,VAZATA,,"2440 Marsh Lane, Carrollton, Texas 75007",0.562 MW,"12,500 sq.f.",,32.979977,-96.853498,address
205,USA,Texas,Dallas,Cologix DAL3,Cologix,,"1950 North Stemmons Freeway, Suite 2004, Dallas, Texas 75207",,,,32.801543581919,-96.823828523262,address
206,USA,Texas,Dallas,IBM DAL01,IBM,,"1950 N. Stemmons Freeway, Suite 3048, Dallas, Texas 75207",,,,32.801543581919,-96.823828523262,address
207,USA,Texas,Dallas,QTS Irving DC5,QTS Data Centers,Planned,"6300 Longhorn Drive, Irving, Texas 75063",,,,32.893903641611,-96.979491130859,address
208,USA,Texas,Dallas,STACK Infrastructure DFW01A,STACK INFRASTRUCTURE,,"6653 Pinecrest Dr, Plano, Texas 75024",21 MW,,,33.062840934607,-96.809475300151,address
209,USA,Texas,Dallas,Consolidated Dallas,Consolidated Communications,,"400 S Akard St, Dallas, Texas 75202",,"6,000 sq.f.",,32.778405770928,-96.798998169898,address
210,USA,Texas,Dallas,STACK Infrastructure DFW02D,STACK INFRASTRUCTURE,Planned,"E Belt Line Road, Building 4, Lancaster, Texas 75146",36 MW,,,32.586328,-96.733972,address
211,USA,Texas,Dallas,Equinix DA12-2,Equinix,Planned,"1550 W Mockingbird Ln, Dallas, Texas 75235",,158293 sq.f.,2028,32.822198616705,-96.860132862239,address
212,USA,Texas,Dallas,STACK Infrastructure DFW02E,STACK INFRASTRUCTURE,Planned,"E Belt Line Road, Building 5, Lancaster, Texas 75146",36 MW,,,32.586328,-96.733972,address
213,USA,Texas,Dallas,ACS Fort Worth Campus,Grupo ACS,Planned,"10059-10197 Hicks Field Rd, Fort Worth, Texas 76179",,,,32.909944526079,-97.400952872842,address
214,USA,Texas,Dallas,1210 Integrity Drive (DFW18),Digital Realty,,"1210 Integrity Drive, Richardson, Texas 75081",36 MW,"227,800 sq.f.",2014,32.964995,-96.711949,address
215,USA,Texas,Dallas,Equinix DA1,Equinix,,"1950 North Stemmons Freeway, Suite 1034, Dallas, Texas 75207",,"30,355 sq.f.",,32.801543581919,-96.823828523262,address
216,USA,Texas,Dallas,Google Midlothian - Bldg 3,Google,,"3441 Railport Pkwy, Midlothian, Texas 76065",,288600 sq.f.,,32.448927895772,-97.056815922356,address
217,USA,Texas,Dallas,DataBank DFW6 - Dallas Love Field,DataBank,,"8600 Harry Hines Blvd, Suite 200, Dallas, Texas 75235",0.675 MW,"12,560 sq.f.",,32.837367281863,-96.865476533525,address
218,USA,Texas,Dallas,DataBank DFW1 - Downtown Dallas,DataBank,,"400 S Akard St, Suite 100, Dallas, Texas 75202",7 MW,145250 sq.f.,2005,32.778405770928,-96.798998169898,address
219,USA,Texas,Dallas,GDC - Dallas TX3 Data Center,"NTT DATA, Inc.",,"2080 Lookout Drive, Garland, Texas 75044",36 MW,"126,720 sq.f.",2024,32.982483930697,-96.657607266476,address
220,USA,Texas,Dallas,Aligned DFW-01,Aligned Data Centers,,"2800 Summit Avenue, Plano, Texas 75074",60 MW,"280,000 sq.f.",,33.009776426561,-96.678415144762,address
221,USA,Texas,Dallas,Cogent Data Center - Dallas 2,"Cogent Communications, Inc.",,"146 Parkhouse St, Dallas, Texas 75207",,"8,192 sq.f.",,32.783691369285,-96.818445175358,address
222,USA,Texas,Dallas,IBM DAL07,IBM,,"1700 Summit Ave, Suite 100, Plano, Texas 75074",,,,32.810421279719,-96.771253942695,address
223,USA,Texas,Dallas,Edged Dallas-Fort Worth DFW02,Edged Energy,Planned,"I-20 & Chapin School Rd, Fort Worth, Texas 76126",,,,32.865965,-97.260163,address
224,USA,Texas,Dallas,LOGIX Dallas #2,LOGIX FIBER NETWORKS,,"2914 Taylor Street, Dallas, Texas 75226",,,,32.781629337633,-96.780734467019,address
225,USA,Texas,Dallas,QTS Irving DC1 & DC2,QTS Data Centers,,"6431 Longhorn Drive, Irving, Texas 75063",37 MW,"250,000 sq.f.",,32.895974347996,-96.981237823225,address
226,USA,Texas,Dallas,Resilience DFW,Overwatch Capital,,"6815 Communications Pkwy, Plano, Texas 75024",50 MW,150000 sq.f.,,33.067941832832,-96.832092014726,address
227,USA,Texas,Dallas,QTS South Dallas DC5,QTS Data Centers,Planned,"421 Mason Rd, Wilmer, Texas 75146",,,,32.581587766483,-96.689375907083,address
228,USA,Texas,Dallas,ACS Fort Worth - Building B,Grupo ACS,Planned,"10100 Hicks Field Rd, Fort Worth, Texas 76179",,,,32.90801220754,-97.400561973466,address
229,USA,Texas,Dallas,Cisco Allen Data Center,Cisco Systems,,"2260 Chelsea Blvd, Allen, Texas 75013",5.2 MW,,2011,33.134363521183,-96.663207156345,address
230,USA,Texas,Dallas,Core Scientific Denton,Core Scientific,,"8171 Jim Christal Rd, Denton, Texas 76207",125 MW,,2022,33.220558,-97.211271,address
231,USA,Texas,Dallas,ACS Fort Worth - Building E,Grupo ACS,Planned,"Hillwood Blvd, Fort Worth, Texas 76179",,,,32.857925,-97.362129,address
232,USA,Texas,Dallas,QTS South Dallas Campus,QTS Data Centers,Under Construction,"303 Mason Rd, Lancaster, Texas 75146",,,,32.583084,-96.692126,address
233,USA,Texas,Dallas,Wowrack Dallas,Wowrack,Planned,"4939 Reading St, Dallas, Texas 75247",,20000 sq.f.,,32.806520702567,-96.865237381896,address
234,USA,Texas,Dallas,QTS South Dallas DC6,QTS Data Centers,Planned,"421 Mason Rd, Wilmer, Texas 75146",,,,32.581587766483,-96.689375907083,address
235,USA,Texas,Dallas,IBM DAL05,IBM,,"4849 Alpha Rd, Dallas, Texas 75244",,,,32.933157530732,-96.824598891647,address
236,USA,Texas,Dallas,DataBank DFW3 - Plano,DataBank,,"8375 Dominion Pkwy, Plano, Texas 75024",13.5 MW,"72,600 sq.f.",,33.085201812599,-96.812384868177,address
237,USA,Texas,Dallas,Lumen Fort Worth 1,Lumen,,"1601 Jones Street, Fort Worth, Texas 76102",,,,32.748728702241,-97.324087045753,address
238,USA,Texas,Dallas,Infomart Dallas,Equinix,,"1950 N. Stemmons Freeway, Dallas, Texas 75207",,,1985,32.801543581919,-96.823828523262,address
239,USA,Texas,Dallas,TierPoint Dallas,TierPoint,,"3004 Irving Blvd, Dallas, Texas 75247",,"51,000 sq.f.",2008,32.807919,-96.857292,address
240,USA,Texas,Dallas,QTS Irving DC6,QTS Data Centers,Planned,"6300 Longhorn Drive, Irving, Texas 75063",,,,32.893903641611,-96.979491130859,address
241,USA,Texas,Dallas,QTS South Dallas DC1,QTS Data Centers,Under Construction,"303 Mason Rd, Lancaster, Texas 75146",,,2025,32.583084,-96.692126,address
242,USA,Texas,Dallas,Black Mountain Fort Worth,Black Mountain,Planned,"7600-7780 Forest Hill Dr & LonStephenson Rd, Forest Hill, Texas 76140",,,,32.644338,-97.270410,address
243,USA,Texas,Dallas,5CDC Dallas-Fort Worth - DFW01,5C Group Inc.,Planned,"5C Group Inc., 1201 John Burgess Dr, Fort Worth, Texas 76140",144 MW,,,32.635290913484,-97.310753542488,address
244,USA,Texas,Dallas,Csquare - Dallas DFW2-A,Csquare,,"900 Guardians Way, Dallas, Texas 75013",12 MW,"74,212 sq.f.",,33.095140,-96.683801,address
245,USA,Texas,Dallas,CyrusOne DFW2 - Lewsiville,CyrusOne Data Centers,,"2501 S. State Hwy 121 Business, Suite 500 (Bldg #5), Lewsiville, Texas 75067",26.5 MW,"110,000 sq.f.",,33.007343,-96.993601,address
246,USA,Texas,Dallas,Amazon AWS - 2300 Coates Road,Amazon AWS,Planned,"2300 Coates Rd, Granbury, Texas 76048",,,,32.331015820778,-97.779330089441,address
247,USA,Texas,Dallas,Equinix DA4,Equinix,,"2323 Bryan St, Dallas, Texas 75201",,"12,529 sq.f.",,32.786929610022,-96.79401789536,address
248,USA,Texas,Dallas,1505 Ferris Rd,Digital Realty,Planned,"1505 Ferris Rd, Garland, Texas 75044",,"181,200 sq.f.",,32.975247232516,-96.649514513126,address
249,USA,Texas,Dallas,STACK Infrastructure DFW02F,STACK INFRASTRUCTURE,Planned,"E Belt Line Road, Building 6, Lancaster, Texas 75146",36 MW,,,32.586328,-96.733972,address
250,USA,Texas,Dallas,TierPoint Dallas - Fort Worth,TierPoint,,"13701 Independence, Fort Worth, Texas 76177",18 MW,"45,000 sq.f.",2001,32.979147008117,-97.251014876016,address
251,USA,Texas,Dallas,Aligned DFW-03,Aligned Data Centers,Planned,"3801 Britton Rd, Mansfield, Texas 76063",,429600 sq.f.,,32.550040,-97.074586,address
252,USA,Texas,Dallas,Aligned Plano Campus,Aligned Data Centers,,"2800 Summit Avenue, Plano, Texas 75074",,,,33.009776426561,-96.678415144762,address
253,USA,Texas,Dallas,Cologix DAL1,Cologix,,"1950 N. Stemmons Fwy, Suite 1032, Dallas, Texas 75207",,,,32.801543581919,-96.823828523262,address
254,USA,Texas,Dallas,GDC - Dallas TX4 Data Center,"NTT DATA, Inc.",Under Construction,"2011 Lookout Drive, Garland, Texas 75044",36 MW,"126,720 sq.f.",2026,32.982609,-96.657353,address
255,USA,Texas,Dallas,365 Data Centers - Dallas,365 Data Centers,,"365 Data Centers, 2323 Bryan St., Dallas, Texas 75201",,,,32.786929610022,-96.79401789536,address
256,USA,Texas,Dallas,KDC Richardson,KDC,,"1510 E Lookout Dr, Richardson, Texas 75082",25 MW,"100,000 sq.f.",2019,32.98536488783,-96.695234569529,address
257,USA,Texas,Dallas,Stream DC DFW-VIII - Wilmer,Stream Data Centers,Planned,"60 Sunrise Road, Wilmer, Texas 75146",90 MW,,,32.594731,-96.704990,address
258,USA,Texas,Dallas,ServerMania Dallas Data Center,ServerMania Inc,,"3000 Irving Blvd, Dallas, Texas 75247",,"64,000 sq.f.",2000,32.807825,-96.857237,address
259,USA,Texas,Dallas,Stream DC DFW VII - Garland,Stream Data Centers,,"1813 Lookout Drive, Garland, Texas 75044",43 MW,,,32.982577876157,-96.660361433635,address
260,USA,Texas,Dallas,24 Hour Data Plano,24 Hour Data,,"24 Hour Data, 811 E Plano Pkwy, Suite 124, Plano, Texas 75074",,,2009,33.007460857036,-96.701993891333,address
261,USA,Texas,Dallas,CyrusOne DFW5 - Allen,CyrusOne Data Centers,Planned,"2300 Chelsea Boulevard, Allen, Texas 75013",,,,33.137232556725,-96.663332409777,address
262,USA,Texas,Dallas,Prime Dallas - Data Center 1,Prime Data Centers,,"1515 Round Table, Dallas, Texas 75247",7.5 MW,"38,000 sq.f.",2014,32.837509927436,-96.879424269717,address
263,USA,Texas,Dallas,950 E. Collins Boulevard (DFW29),Digital Realty,,"950 E. Collins Boulevard, Richardson, Texas 75081",7.2 MW,"63,000 sq.f.",2012,32.96790892786,-96.711389334351,address
264,USA,Texas,Dallas,Google Midlothian - Bldg 2,Google,,"3441 Railport Pkwy, Midlothian, Texas 76065",,282000 sq.f.,,32.448927895772,-97.056815922356,address
265,USA,Texas,Dallas,GDC - Dallas TX2 Data Center,"NTT DATA, Inc.",,"2108 Lookout Drive, Garland, Texas 75044",36 MW,229500 sq.f.,2024,32.982352682867,-96.652613746226,address
266,USA,Texas,Dallas,NTT Garland Campus,"NTT DATA, Inc.",,"2008-2108 Lookout Drive, Garland, Texas 75044",,,,32.982352682867,-96.652613746226,address
267,USA,Texas,Dallas,Evocative DAL6,Evocative Data Centers,,"1221 Coit Road, Plano, Texas 75075",12 MW,"52,000 sq.f.",2011,33.016063225651,-96.766853533698,address
268,USA,Texas,Dallas,DigiCo Dallas DAL1,DigiCo Infrastructure REIT,,"1402 E Lookout Dr, Richardson, Texas 75082",13.5 MW,40000 sq.f.,2015,32.985320075613,-96.699457567568,address
269,USA,Texas,Dallas,Riot Platforms Corsicana,"Riot Platforms, Inc.",,"6980 Farm to Market Rd 709, Corsicana, Texas 75110",1000 MW,,2024,31.964537816238,-96.511189519268,address
270,USA,Texas,Dallas,Equinix DA9,Equinix,,"2222 East Grauwyler Road, Irving, Texas 75061",,"36,554 sq.f.",,32.830660052664,-96.912475087068,address
271,USA,Texas,Dallas,DataBank DFW5 - Dallas Infomart,DataBank,,"1950 Stemmons Fwy, Suite 4006, Dallas, Texas 75207",1.45 MW,"15,000 sq.f.",,32.801543581919,-96.823828523262,address
272,USA,Texas,Dallas,ATOS Dallas Data Center,Atos Group,,"2323 Bryan Street, Dallas, Texas 75201",,,,32.786929610022,-96.79401789536,address
273,USA,Texas,Dallas,VAZATA McKinney,VAZATA,,"1720 Bray Central Dr, McKinney, Texas 75069",1 MW,"5,000 sq.f.",2016,33.222837539484,-96.628283106783,address
274,USA,Texas,Dallas,PowerHouse Irving Campus,PowerHouse Data Centers,Under Construction,"111 Customer Way, Irving, Texas 75039",200 MW,,,32.885658434327,-96.93430748095,address
275,USA,Texas,Dallas,DataBank DFW8 - Plano,DataBank,,"8375 Dominion Pkwy, Plano, Texas 75024",40.5 MW,126000 sq.f.,,33.085201812599,-96.812384868177,address
276,USA,Texas,Dallas,Equinix DA7,Equinix,,"6653 Pinecrest Dr, Plano, Texas 75024",,"37,910 sq.f.",,33.062840934607,-96.809475300151,address
277,USA,Texas,Dallas,Tier.Net Dallas Data Center,TierNet,,"1515 Round Table Dr, Dallas, Texas 75247",,,,32.837509927436,-96.879424269717,address
278,USA,Texas,Dallas,"IRVING-TX (Dallas, Texas)",Cloudnium LLC.,,"6001 W Campus Circle, Irving city, Texas 75063",8.5 MW,,2025,32.890643954383,-96.986706653719,address
279,USA,Texas,Dallas,CoreWeave Plano,CoreWeave,,"1000 Coit Rd, Plano, Texas 75075",30 MW,"106,000 sq.f.",2023,33.011707716343,-96.766609590998,address
280,USA,Texas,Dallas,Digital Realty Garland Campus,Digital Realty,Planned,"1702 W Campbell Rd / 1502 Ferris Rd / 1505 Ferris Rd, Garland, Texas 75044",,,,32.975247232516,-96.649514513126,address
281,USA,Texas,Dallas,Cisco Richardson Data Center,Cisco Systems,,"2300 E President George Bush Hwy, Richardson, Texas 75082",,,2009,32.999898,-96.678828,address
282,USA,Texas,Dallas,CoreSpace Dallas Data Center,"CoreSpace, Inc.",,"7505 John W Carpenter Freeway, Dallas, Texas 75247",2 MW,"30,000 sq.f.",2009,32.818011001846,-96.872456512429,address
283,USA,Texas,Dallas,DataBank DFW4 - Dallas Empire,DataBank,,"1100 Empire Central Place, Dallas, Texas 75247",4 MW,"35,900 sq.f.",,32.822853038237,-96.873611115199,address
284,USA,Texas,Dallas,Cogent Data Center - Dallas,"Cogent Communications, Inc.",,"400 S. Akard St, Dallas, Texas 75202",0.5 MW,"8,000 sq.f.",,32.778405770928,-96.798998169898,address
285,USA,Texas,Dallas,4025 Midway Rd (DFW11),Digital Realty,,"4025 Midway Rd, Carrollton, Texas 75007",4.4 MW,"48,500 sq.f.",2000,33.021332206857,-96.84362028382,address
286,USA,Texas,Dallas,NocRoom Dallas Colocation and VPS,NocRoom Miami Colocation VPS,,"33004 Irving Blvd, Dallas, Texas 75247",,,,32.827990,-96.871410,address
287,USA,Texas,Dallas,Prime Dallas Data Center Campus,Prime Data Centers,,"1515 Round Table, Dallas, Texas 75247",7.5 MW,"38,000 sq.f.",2014,32.837509927436,-96.879424269717,address
288,USA,Texas,Laredo,Lumen Laredo 1,Lumen,,"518 Farragut, Laredo, Texas 78040",,,,27.505663685052,-99.500982476689,address
289,USA,Texas,Laredo,Windstream Laredo,Windstream,,"520 Matamoros St, Laredo, Texas 78040",,,,27.506374016673,-99.50097890512,address
290,USA,Texas,Laredo,MDC Laredo - LDO1,MDC Data Centers,,"13619 Cabezut Dr, Unitec Industrial Park, Laredo, Texas 78045",0.65 MW,,2018,27.689900848482,-99.45102244275,address
291,USA,Texas,Brady,Cipher Mikeska,Cipher Mining Technologies Inc.,Planned,"E County Rd 368, Doole, Texas 76888",500 MW,,2028,31.480112,-99.599859,address
292,USA,Texas,Lubbock,Lumen Lubbock 1,Lumen,,"1502 Ave. N, Lubbock, Texas 79479",,,,33.581620519099,-101.851390814761,address
293,USA,Texas,Lubbock,Aligned LBB Campus,Aligned Data Centers,Under Construction,"County Rd 315 & Hi-Line Rd, Abernathy, Texas 79311",540 MW,1650000 sq.f.,2027,33.861612299784,-101.836012669182,address
294,USA,Texas,Lubbock,Reese Data Center,Reese Data Center,,"9924 Reese Blvd, Lubbock, Texas 79416",,,,33.593901650616,-102.032127337363,address
295,USA,Texas,Waco,DataBank ACT1 - Waco,DataBank,,"700 Austin, Waco, Texas 76701",0.8 MW,"14,210 sq.f.",,31.555182500521,-97.133525453761,address
296,USA,Texas,Waco,Lumen Waco,Lumen,,"1417 Airbase Rd, Waco, Texas 75705",,,,31.612739644831,-97.093167941942,address
297,USA,Texas,Waco,Meta Temple Data Center,Meta,Under Construction,"NW H K Dodgen Loop & Industrial Blvd, Temple, Texas 76502",,,,31.13589060128,-97.373696922647,address
298,USA,Texas,Waco,Duos Edge AI - Waco EDC,"Duos Edge AI, Inc.",,"2101 W Loop 340, Education Service Center Region 12, Waco, Texas 76712",,,,31.497737,-97.166818,address
299,USA,Texas,Lufkin,Project Lufkin,Amp Z,Planned,"Peoples St, Lufkin, Texas 75901",,,,31.358174,-94.681033,address
300,USA,Texas,Lufkin,555 Sellers St,1606 Corp.,Land Banked,"1606 Corp., 555 Sellers St, Lufkin, Texas 75904",,,,31.340087,-94.728420,address
301,USA,Texas,Amarillo,Duos Edge AI - Amarillo EDC,"Duos Edge AI, Inc.",,"5800 Bell St, Amarillo, Texas 79109",,,,35.148860325153,-101.902110555388,address
302,USA,Texas,Amarillo,Crusoe Goodnight Campus DC1,Crusoe Cloud,Under Construction,"10001 Lima Rd, Claude, Texas 79019",,490.000 sq.f.,,35.016658,-101.357689,address
303,USA,Texas,Amarillo,Project Dorothy Campus,Soluna Computing,,"9985 Co Rd F, Silverton, Texas 79257",,,,34.391588609612,-101.31833730109,address
304,USA,Texas,Amarillo,Project Dorothy 3,Soluna Computing,Planned,"9985 Co Rd F, Silverton, Texas 79257",300 MW,,,34.391588609612,-101.31833730109,address
305,USA,Texas,Amarillo,Crusoe Goodnight Campus DC7,Crusoe Cloud,Under Construction,"10001 Lima Rd, Claude, Texas 79019",,490.000 sq.f.,,35.016658,-101.357689,address
306,USA,Texas,Amarillo,Project Matador D3,Fermi America,Planned,"US Highway 60 & FM2373, Panhandle, Texas 79068",,,,35.345137,-101.379001,address
307,USA,Texas,Amarillo,Project Matador D4,Fermi America,Planned,"US Highway 60 & FM2373, Panhandle, Texas 79068",,,,35.345137,-101.379001,address
308,USA,Texas,Amarillo,Duos Edge AI - Hereford EDC,"Duos Edge AI, Inc.",,"601 N 25 Mile Ave, Hereford Independent School District, Hereford, Texas 79045",,,,34.836766226732,-102.405461823569,address
309,USA,Texas,Amarillo,Crusoe Goodnight Campus,Crusoe Cloud,Under Construction,"10001 Lima Rd, Claude, Texas 79019",1000 MW,3430000 sq.f.,,35.016658,-101.357689,address
310,USA,Texas,Amarillo,Project Matador D7,Fermi America,Planned,"US Highway 60 & FM2373, Panhandle, Texas 79068",,,,35.345137,-101.379001,address
311,USA,Texas,Amarillo,Duos Edge AI - Pampa,"Duos Edge AI, Inc.",Planned,"8201 Fm 2300, Pampa, Texas 79065",50 MW,,,35.485520,-101.043720,address
312,USA,Texas,Amarillo,Project Matador Campus,Fermi America,Planned,"US Highway 60 & FM2373, Panhandle, Texas 79068",11000 MW,,,35.345137,-101.379001,address
313,USA,Texas,Amarillo,Crusoe Goodnight Campus DC3,Crusoe Cloud,Under Construction,"10001 Lima Rd, Claude, Texas 79019",,490.000 sq.f.,,35.016658,-101.357689,address
314,USA,Texas,Amarillo,Project Matador D5,Fermi America,Planned,"US Highway 60 & FM2373, Panhandle, Texas 79068",,,,35.345137,-101.379001,address
315,USA,Texas,Amarillo,Project Dorothy 1,Soluna Computing,,"9985 Co Rd F, Silverton, Texas 79257",100 MW,,,34.391588609612,-101.31833730109,address
316,USA,Texas,Amarillo,Duos Edge AI - Amarillo,"Duos Edge AI, Inc.",Planned,"810-814 S Tyler St, Amarillo, Texas 79101",,,2026,35.205603258135,-101.838741615459,address
317,USA,Texas,Amarillo,Crusoe Goodnight Campus DC2,Crusoe Cloud,Under Construction,"10001 Lima Rd, Claude, Texas 79019",,490.000 sq.f.,,35.016658,-101.357689,address
318,USA,Texas,Amarillo,Project Matador D2,Fermi America,Planned,"US Highway 60 & FM2373, Panhandle, Texas 79068",,,,35.345137,-101.379001,address
319,USA,Texas,Amarillo,Crusoe Goodnight Campus DC6,Crusoe Cloud,Under Construction,"10001 Lima Rd, Claude, Texas 79019",,490.000 sq.f.,,35.016658,-101.357689,address
320,USA,Texas,Amarillo,Crusoe Goodnight Campus DC5,Crusoe Cloud,Under Construction,"10001 Lima Rd, Claude, Texas 79019",,490.000 sq.f.,,35.016658,-101.357689,address
321,USA,Texas,Amarillo,Project Matador D6,Fermi America,Planned,"US Highway 60 & FM2373, Panhandle, Texas 79068",,,,35.345137,-101.379001,address
322,USA,Texas,Amarillo,Crusoe Goodnight Campus DC4,Crusoe Cloud,Under Construction,"10001 Lima Rd, Claude, Texas 79019",,490.000 sq.f.,,35.016658,-101.357689,address
323,USA,Texas,Amarillo,Project Matador D1,Fermi America,Planned,"US Highway 60 & FM2373, Panhandle, Texas 79068",,,,35.345137,-101.379001,address
324,USA,Texas,Amarillo,Lumen Amarillo 1,Lumen,,"512 SE 8th Avenue, Amarillo, Texas 79101",,,,35.204596,-101.831826,address
325,USA,Texas,Amarillo,Project Dorothy 2,Soluna Computing,,"9985 Co Rd F, Silverton, Texas 79257",48 MW,,,34.391588609612,-101.31833730109,address
326,USA,Texas,Amarillo,Cipher Alborz,Cipher Mining Technologies Inc.,,"Farm to Market Road 168, Happy, Texas 79042",40 MW,,,34.743581,-101.856376,address
327,USA,Texas,San Antonio,CyrusOne SAT9 - San Antonio,CyrusOne Data Centers,Under Construction,"14815 Omicron Dr, San Antonio, Texas 78245",,,,29.42021902509,-98.792300252297,address
328,USA,Texas,San Antonio,CyrusOne SAT4 - San Antonio,CyrusOne Data Centers,,"9655 Raba Drive, San Antonio, Texas 78251",,,,29.470655083949,-98.669557665889,address
329,USA,Texas,San Antonio,Microsoft San Antonio (SAT81),Microsoft,Under Construction,"8844 Fm1957, Castroville, Texas 78009",,,2028,29.44438434211,-98.660078650396,address
330,USA,Texas,San Antonio,CyrusOne SAT6 - San Antonio,CyrusOne Data Centers,,"14719 Omicron Drive, San Antonio, Texas 78245",,,,29.417060198092,-98.78874625249,address
331,USA,Texas,San Antonio,Windstream San Antonio,Windstream,,"106 S St Mary's St, San Antonio, Texas 78205",,,,29.424434181806,-98.491445780823,address
332,USA,Texas,San Antonio,CyrusOne SAT5 - San Antonio,CyrusOne Data Centers,,"14719 Omicron Dr., San Antonio, Texas 78245",18 MW,"100,000 sq.f.",,29.417060198092,-98.78874625249,address
333,USA,Texas,San Antonio,American Tower EDC San Antonio,American Tower Corporation,Planned,"5436 W US Hwy 90, San Antonio, Texas 78219",,7255 sq.f.,,29.406120,-98.598262,address
334,USA,Texas,San Antonio,CloudHQ SAT2,CloudHQ,Planned,"15255 Lambda Dr, San Antonio, Texas 78245",84 MW,,,29.412507700277,-98.793776834826,address
335,USA,Texas,San Antonio,Microsoft San Antonio (SAT89),Microsoft,Planned,"2995 US Hwy 90 W, Castroville, Texas 78009",,,,29.355468937711,-98.858672725005,address
336,USA,Texas,San Antonio,CloudHQ SAT5,CloudHQ,Planned,"15255 Lambda Dr, San Antonio, Texas 78245",84 MW,,,29.412507700277,-98.793776834826,address
337,USA,Texas,San Antonio,QTS San Antonio 2,QTS Data Centers,,"8535 Potranco Rd, San Antonio, Texas 78251",90 MW,,,29.449217,-98.652947,address
338,USA,Texas,San Antonio,CyrusOne SAT8 - San Antonio,CyrusOne Data Centers,Under Construction,"14677 Omicron Dr, San Antonio, Texas 78245",,,,29.415800,-98.786380,address
339,USA,Texas,San Antonio,CityNAP,CityNAP,,"415 N Main Ave, San Antonio, Texas 78205",,,,29.428871756265,-98.493978717356,address
340,USA,Texas,San Antonio,CyrusOne SAT3 - San Antonio,CyrusOne Data Centers,,"9554 Westover Hills Boulevard, San Antonio, Texas 78251",,,,29.472581015746,-98.672342362064,address
341,USA,Texas,San Antonio,Bexar Datacenter,Bexar Datacenter,,"3463 Magic Drive, STE 100, San Antonio, Texas 78229",10 MW,,2005,29.502161256096,-98.557115569346,address
342,USA,Texas,San Antonio,San Antonio Data Center,"Five 9s Digital, LLC",,"8500 Vicar Drive, San Antonio, Texas 78218",,"25,000 sq.f.",,29.512482735374,-98.408663123529,address
343,USA,Texas,San Antonio,CloudHQ SAT1,CloudHQ,Planned,"15255 Lambda Dr, San Antonio, Texas 78245",84 MW,,,29.412507700277,-98.793776834826,address
344,USA,Texas,San Antonio,Microsoft San Antonio (SAT80),Microsoft,Under Construction,"8844 Fm1957, Castroville, Texas 78009",,,,29.44438434211,-98.660078650396,address
345,USA,Texas,San Antonio,Amazon AWS SAT - 1535 NW Crossroads,Amazon AWS,Planned,"1535 NW Crossroads, Building B, San Antonio, Texas 78251",,141979 sq.f.,2027,29.449149,-98.637039,address
346,USA,Texas,San Antonio,Amazon AWS SAT - 11625 Old Corpus Christi,Amazon AWS,Planned,"11625 Old Corpus Christi Hwy, San Antonio, Texas 78223",,109600 sq.f.,,29.30137834902,-98.388123637274,address
347,USA,Texas,San Antonio,Microsoft Texas Research Park (TRP1),Microsoft,,"15000 Lambda Dr, San Antonio, Texas 78245",,"159,000 sq.f.",2017,29.410854,-98.783372,address
348,USA,Texas,San Antonio,Amazon AWS SAT - 7400 Potranco,Amazon AWS,,"7400 Potranco Rd, Building A, San Antonio, Texas 78251",,109600 sq.f.,2021,29.453247504985,-98.637065262659,address
349,USA,Texas,San Antonio,Microsoft Castroville Campus,Microsoft,Under Construction,"2580 FM471 North / 8844 FM1957, Castroville, Texas 78009",,,,29.44438434211,-98.660078650396,address
350,USA,Texas,San Antonio,Stream DC San Antonio III,Stream Data Centers,Under Construction,"11203 W Military Drive, San Antonio, Texas 78253",200 MW,"1,500,000 sq.f.",,29.448201984515,-98.712797308913,address
351,USA,Texas,San Antonio,Microsoft Texas Research Park (TRP6),Microsoft,,"15000 Lambda Dr, San Antonio, Texas 78245",,,,29.410854,-98.783372,address
352,USA,Texas,San Antonio,Amazon AWS SAT - TX-211 & Potranco Rd,Amazon AWS,Planned,"TX-211 & Potranco Rd, San Antonio, Texas 78223",,109600 sq.f.,,29.379062,-98.459598,address
353,USA,Texas,San Antonio,Microsoft San Antonio Chevron,Microsoft,,"5150 Rogers Rd, San Antonio, Texas 78251",,,,29.478778261529,-98.695056289901,address
354,USA,Texas,San Antonio,CloudHQ SAT Campus,CloudHQ,Planned,"15255 Lambda Dr, San Antonio, Texas 78245",600 MW,,,29.412507700277,-98.793776834826,address
355,USA,Texas,San Antonio,Microsoft San Antonio (SAT93),Microsoft,Planned,"along County Road 381, Medina, Texas 78253",,245000 sq.f.,2029,29.429934,-98.734894,address
356,USA,Texas,San Antonio,Microsoft San Antonio (SAT94),Microsoft,Planned,"along County Road 381, Medina, Texas 78253",,245000 sq.f.,2029,29.429934,-98.734894,address
357,USA,Texas,San Antonio,Microsoft Texas Research Park (SAT46 / TRP3),Microsoft,,"15000 Lambda Dr, San Antonio, Texas 78245",,,,29.410854,-98.783372,address
358,USA,Texas,San Antonio,Microsoft Texas Research Park (TRP2),Microsoft,,"15000 Lambda Dr, San Antonio, Texas 78245",,"159,000 sq.f.",2018,29.410854,-98.783372,address
359,USA,Texas,San Antonio,Vantage TX22 - San Antonio,Vantage Data Centers,Planned,"5207 Rogers Rd, San Antonio, Texas 78251",,,2027,29.483015602645,-98.700439228449,address
360,USA,Texas,San Antonio,Microsoft Texas Research Park (TRP4),Microsoft,,"15000 Lambda Dr, San Antonio, Texas 78245",,,,29.410854,-98.783372,address
361,USA,Texas,San Antonio,Vantage TX12 - San Antonio,Vantage Data Centers,Planned,"17420 Omicron Dr, San Antonio, Texas 78245",96 MW,432800 sq.f.,2027,29.458441,-98.646905,address
362,USA,Texas,San Antonio,Duos Edge AI - Victoria EDC,"Duos Edge AI, Inc.",,"1905 Leary Ln, Victoria, Texas 77901",,,,28.836030270807,-96.986251687265,address
363,USA,Texas,San Antonio,Lumen San Antonio 2,Lumen,,"1203 N. Frio Street, San Antonio, Texas 78207",,,,29.438282621658,-98.506053059675,address
364,USA,Texas,San Antonio,Vantage TX21 - San Antonio,Vantage Data Centers,Planned,"5207 Rogers Rd, San Antonio, Texas 78251",,,,29.483015602645,-98.700439228449,address
365,USA,Texas,San Antonio,Microsoft San Antonio (SAT82),Microsoft,Under Construction,"2580 Farm-to-Market 471 North, Castroville, Texas 78009",,,,29.402244624956,-98.890217399604,address
366,USA,Texas,San Antonio,Microsoft Texas Research Park (SAT40),Microsoft,Planned,"15000 Lambda Dr, San Antonio, Texas 78245",,,,29.410854,-98.783372,address
367,USA,Texas,San Antonio,Amazon AWS SAT - 12807 Donop A,Amazon AWS,,"12807 Donop Rd, Building A, Elmendorf, Texas 78223",,,,29.293116,-98.391844,address
368,USA,Texas,San Antonio,Microsoft Wiseman Boulevard (SAT14),Microsoft,Under Construction,"3545 Wiseman Blvd, San Antonio, Texas 78251",,,,29.473179430857,-98.681507780288,address
369,USA,Texas,San Antonio,Black Mountain San Antonio,Black Mountain,Land Banked,"TX-16 & Lone Star Pass, San Antonio, Texas 78264",,,,29.272354,-98.573974,address
370,USA,Texas,San Antonio,Microsoft San Antonio (SAT15),Microsoft,Under Construction,"3555 Westover Link, San Antonio, Texas 78251",,,2024,29.469561,-98.699016,address
371,USA,Texas,San Antonio,Amazon AWS SAT - 12807 Donop B,Amazon AWS,Under Construction,"12807 Donop Rd, Building B, Elmendorf, Texas 78112",,119407 sq.f.,2029,29.293116,-98.391844,address
372,USA,Texas,San Antonio,Stream DC San Antonio II - Westover Hills,Stream Data Centers,,"9550 Westover Hills Blvd, San Antonio, Texas 78251",10.8 MW,"30,000 sq.f.",,29.472664089261,-98.672238520167,address
373,USA,Texas,San Antonio,Microsoft Texas Research Park (TRP5),Microsoft,,"15000 Lambda Dr, San Antonio, Texas 78245",,,,29.410854,-98.783372,address
374,USA,Texas,San Antonio,Vantage TX11 - San Antonio,Vantage Data Centers,Under Construction,"14720 Omicron Dr, San Antonio, Texas 78245",32 MW,242667 sq.f.,,29.416681505461,-98.788564452515,address
375,USA,Texas,San Antonio,CyrusOne SAT1 - San Antonio,CyrusOne Data Centers,,"9999 Westover Hills Blvd, San Antonio, Texas 78251",9 MW,"40,000 sq.f.",,29.46568205401,-98.687977501223,address
376,USA,Texas,San Antonio,Lumen San Antonio 1,Lumen,,"5130 Service Center Drive, San Antonio, Texas 78218",,,,29.475677672711,-98.391428344011,address
377,USA,Texas,San Antonio,CloudHQ SAT3,CloudHQ,Planned,"15255 Lambda Dr, San Antonio, Texas 78245",84 MW,,,29.412507700277,-98.793776834826,address
378,USA,Texas,San Antonio,Microsoft San Antonio (SN7),Microsoft,,"5200 Rogers Rd, San Antonio, Texas 78251",,,,29.479878044277,-98.69707581558,address
379,USA,Texas,San Antonio,Microsoft San Antonio (SAT90),Microsoft,Planned,"2995 US Hwy 90 W, Castroville, Texas 78009",,,,29.355468937711,-98.858672725005,address
380,USA,Texas,San Antonio,Amazon AWS SAT - Bitter Blue Campus,Amazon AWS,,"12807 Donop Rd, Elmendorf, Texas 78112",,,,29.293116,-98.391844,address
381,USA,Texas,San Antonio,Rowan Cinco,Rowan Digital Infrastructure,Under Construction,"TX-132 & Co Rd 683, Lytle, Texas 78052",300 MW,,,29.219412060852,-98.824440305829,address
382,USA,Texas,San Antonio,H5 Data Centers San Antonio,H5 Data Centers,,"100 Taylor St., San Antonio, Texas 78205",,"85,000 sq.f.",,29.429295988349,-98.487403121319,address
383,USA,Texas,San Antonio,CyrusOne SAT2 - San Antonio,CyrusOne Data Centers,,"9554 Westover Hills Blvd, San Antonio, Texas 78251",36 MW,"196,000 sq.f.",,29.472581015746,-98.672342362064,address
384,USA,Texas,San Antonio,CloudHQ SAT4,CloudHQ,Planned,"15255 Lambda Dr, San Antonio, Texas 78245",84 MW,,,29.412507700277,-98.793776834826,address
385,USA,Texas,San Antonio,Microsoft Texas Research Park,Microsoft,,"15000 Lambda Dr, San Antonio, Texas 78245",,,,29.410854,-98.783372,address
386,USA,Texas,San Antonio,Lumen San Antonio 3,Lumen,,"214 E Ramsey Rd, San Antonio, Texas 78216",,,,29.528172914474,-98.492519474311,address
387,USA,Texas,San Antonio,Amazon AWS SAT - Potranco Campus,Amazon AWS,,"1535 NW Crossroads / 7400 Potranco Rd, San Antonio, Texas 78251",,,,29.453247504985,-98.637065262659,address
388,USA,Texas,El Paso,Stanton Data Center,Huntleigh Technology Group,,"100 N. Stanton St., El Paso, Texas 79901",,"4,000 sq.f.",2010,31.759185862523,-106.486070543275,address
389,USA,Texas,El Paso,Lumen El Paso 1,Lumen,,"501 W. Overland, El Paso, Texas 79936",,,,31.755770727272,-106.492887539608,address
390,USA,Texas,El Paso,Cogent Data Center - El Paso,"Cogent Communications, Inc.",,"151 N Boone St, El Paso, Texas 79905",,"5,710 sq.f.",,31.773816441578,-106.443899515437,address
391,USA,Texas,El Paso,One San Jacinto Plaza,Unknown Company,,"201 E Main Drive, El Paso, Texas 79901",,,,31.760355168011,-106.488450010515,address
392,USA,Texas,El Paso,MDC El Paso - ELP1,MDC Data Centers,,"11455 Cedar Oak Dr, El Paso, Texas 79936",0.5 MW,,,31.749932,-106.309858,address
393,USA,Texas,El Paso,Meta El Paso Campus,Meta,Under Construction,"US-54 & Stan Roberts Sr Ave, El Paso, Texas 79934",1000 MW,,,31.986822,-106.346616,address
394,USA,Texas,El Paso,Flō Networks El Paso,Flo Networks,,"500 W Overland Avenue, El Paso, Texas 79901",,,,31.755659895746,-106.492853301816,address
395,USA,Texas,El Paso,Connect El Paso,Connect Data Centers by Oppidan,Planned,"9879 North Loop Dr, El Paso, Texas 79907",5 MW,61555 sq.f.,,31.681174290182,-106.292452646209,address
396,USA,Texas,El Paso,Lumen El Paso 2,Lumen,,"201 E Main Drive, 4th Floor, El Paso, Texas 79901",,,,31.760355168011,-106.488450010515,address
397,USA,Texas,Houston,Project Aggie,Priority Power,Planned,"Midtown Dr & Corporate Pkwy, College Station, Texas 77845",600 MW,,,30.584486,-96.285756,address
398,USA,Texas,Houston,Serverfarm Houston Data Center HTX2,Serverfarm,Under Construction,"28401 Betka Rd, Hockley, Texas 77447",,565000 sq.f.,,30.021831470725,-95.857169034334,address
399,USA,Texas,Houston,Evocative - INAP Houston,Evocative Data Centers,,"1301 Fannin St, Houston, Texas 77022",,,,29.754104123651,-95.365803045271,address
400,USA,Texas,Houston,Comcast Willis,Comcast,Planned,"606 Texas State Highway 75, Willis, Texas 77378",,5200 sq.f.,,30.418553481816,-95.477860903795,address
401,USA,Texas,Houston,EdgeConneX Houston,EdgeConneX,,"1510 Prime West Parkway, Katy, Texas 77449",1 MW,"17,700 sq.f.",,29.792997739057,-95.746712037059,address
402,USA,Texas,Houston,IBM HOU04,IBM,,"315 Capitol St, Houston, Texas 77002",,,,29.76307521664,-95.369814168331,address
403,USA,Texas,Houston,Energy Transfer Data Center,Energy Transfer,,"7210 Ardmore, Houston, Texas 77054",,,,29.692882851721,-95.379787823625,address
404,USA,Texas,Houston,IBM HOU02,IBM,,"855 Greens Parkway, Houston, Texas 77067",,,,29.943021615401,-95.42947771263,address
405,USA,Texas,Houston,12235 North Fwy (IAH14),Digital Realty,,"12235 North Fwy, Houston, Texas 77060",6.2 MW,"42,400 sq.f.",,29.94451802777,-95.415914756528,address
406,USA,Texas,Houston,CyrusOne HOU3 - Houston,CyrusOne Data Centers,,"11003 Corporate Centre Dr, Houston, Texas 77041",,,,29.841088314555,-95.5632430718,address
407,USA,Texas,Houston,12231 North Fwy (IAH13),Digital Realty,,"12231 North Fwy, Houston, Texas 77060",3.3 MW,"30,600 sq.f.",,29.944489988951,-95.415905254486,address
408,USA,Texas,Houston,Iozera Houston,Iozera,,"11631 Roark Rd, Houston, Texas 77031",10 MW,25680 sq.f.,2007,29.649512841072,-95.564929175567,address
409,USA,Texas,Houston,Lumen Houston 2,Lumen,,"7060 Empire Central Dr, Houston, Texas 77040",,,,29.874226308683,-95.545941054247,address
410,USA,Texas,Houston,Skybox Houston One,Skybox Datacenters,,"22000 Franz Road, Houston, Texas 77449",26 MW,,,29.802138271957,-95.754070368898,address
411,USA,Texas,Houston,DataBank HOU1 - Westway Park I,DataBank,,"5150 Westway Park Blvd, Houston, Texas 77041",15.6 MW,"110,190 sq.f.",,29.844016744878,-95.557305216928,address
412,USA,Texas,Houston,12001 North Fwy (IAH10),Digital Realty,,"12001 North Fwy, Houston, Texas 77060",,"219,600 sq.f.",,29.942879436376,-95.415348767402,address
413,USA,Texas,Houston,Project Aggie - Building 2,Priority Power,Planned,"Midtown Dr & Corporate Pkwy, College Station, Texas 77845",,,,30.584486,-96.285756,address
414,USA,Texas,Houston,IBM HOU01,IBM,,"390 Benmar Drive, Houston, Texas 77060",,,,29.943743732844,-95.39819094913,address
415,USA,Texas,Houston,Netrality - 1301 Fannin,Netrality,,"1301 Fannin Street, Houston, Texas 77002",26 MW,"231,700 sq.f.",1981,29.754104123651,-95.365803045271,address
416,USA,Texas,Houston,"FIBERTOWN - Houston, Texas",FIBERTOWN,,"12031 North Freeway, Houston, Texas 77067",,,2011,29.943088695285,-95.415423969808,address
417,USA,Texas,Houston,TeleSource IDC,TeleSource Communications Inc.,,"1301 Fannin St, Houston, Texas 77002",,,,29.754104123651,-95.365803045271,address
418,USA,Texas,Houston,TRG Houston Campus,TRG Datacenters,,"2626 Spring Cypress Rd, Spring, Texas 77388",30 MW,,,30.066026434779,-95.455736245303,address
419,USA,Texas,Houston,LOGIX Houston #2,LOGIX FIBER NETWORKS,,"811 Louisiana St, Houston, Texas 77002",,,,29.759861766574,-95.366387594594,address
420,USA,Texas,Houston,Stream DC Houston I - The Woodlands,Stream Data Centers,,"4001 Technology Forest Blvd, The Woodlands, Texas 77381",7.8 MW,"30,000 sq.f.",,30.176396709971,-95.48270315498,address
421,USA,Texas,Houston,Cogent Data Center - Houston,"Cogent Communications, Inc.",,"12061 North Frwy, Houston, Texas 77060",2.7 MW,"27,460 sq.f.",,29.943297954194,-95.415499172214,address
422,USA,Texas,Houston,Lumen Houston 3,Lumen,,"2300 Lyons Avenue, Houston, Texas 77020",,,,29.771616593976,-95.346459046822,address
423,USA,Texas,Houston,Equinix HO1,Equinix,,"1515 Aldine Meadows Road, Houston, Texas 77032",,"76,606 sq.f.",,29.935192452786,-95.35642787891,address
424,USA,Texas,Houston,Project Aggie - Building 1,Priority Power,Planned,"Midtown Dr & Corporate Pkwy, College Station, Texas 77845",,,,30.584486,-96.285756,address
425,USA,Texas,Houston,DataBank HOU5 - Houston Galleria,DataBank,,"4201 Southwest Freeway, Houston, Texas 77027",5.25 MW,64400 sq.f.,,29.728650926659,-95.444337164216,address
426,USA,Texas,Houston,CyrusOne HOU4 - Houston,CyrusOne Data Centers,,"5160 Westway Park Blvd, Houston, Texas 77041",,,,29.844240154142,-95.557303471533,address
427,USA,Texas,Houston,DataBank HOU2 - Westway Park II,DataBank,,"5170 Westway Park Blvd, Houston, Texas 77041",9 MW,"79,520 sq.f.",,29.844463563406,-95.557301726138,address
428,USA,Texas,Houston,Cogent Data Center - Houston 2,"Cogent Communications, Inc.",,"8902 Point Six Circle, Houston, Texas 77095",2.5 MW,"27,183 sq.f.",,29.906932779571,-95.626107712221,address
429,USA,Texas,Houston,IBM HOU00,IBM,,"835 Greens Parkway, Suite 150, Houston, Texas 77002",,,,29.943046656529,-95.428163051108,address
430,USA,Texas,Houston,Serverfarm Houston Data Center CTX2,Serverfarm,Under Construction,"15555 Cutten Rd, Houston, Texas 77070",60 MW,438000 sq.f.,,29.997197023616,-95.562175222658,address
431,USA,Texas,Houston,Hostrunway Houston,Hostrunway,,"10685-B Hazelhurst Dr. # 19283, Houston, Texas 77043",,,,29.797028296849,-95.560689547338,address
432,USA,Texas,Houston,LOGIX Houston #3,LOGIX FIBER NETWORKS,,"4635 Southwest Freeway, Houston, Texas 77027",,,,29.729597246872,-95.452192775891,address
433,USA,Texas,Houston,NaviSite Houston,"NaviSite, Inc.",,"1301 Fannin Street, Houston, Texas 77002",,,,29.754104123651,-95.365803045271,address
434,USA,Texas,Houston,24 Hour Data Houston,24 Hour Data,,"24 Hour Data, 723 Main St, Suite 400, Houston, Texas 77002",,,2011,29.75897057778,-95.363246690391,address
435,USA,Texas,Houston,Crown Castle Houston (TX1),CROWN CASTLE,,"801 Louisiana St, Houston, Texas 77002",1 MW,"5,370 sq.f.",2007,29.759927344864,-95.366337211272,address
436,USA,Texas,Houston,TRG Houston One HOU1,TRG Datacenters,,"2626 Spring Cypress Road, Spring, Texas 77388",24 MW,"150,000 sq.f.",2017,30.066026434779,-95.455736245303,address
437,USA,Texas,Houston,1001 Texas Data Center,1001 Texas Data Center,,"1001 Texas Data Center, 1001 Texas Ave, Houston, Texas 77002",4 MW,"6,600 sq.f.",2000,29.759981,-95.362185,address
438,USA,Texas,Houston,12061 North Freeway (IAH11),Digital Realty,,"12061 North Freeway, Houston, Texas 77060",3.3 MW,"27,500 sq.f.",1989,29.943297954194,-95.415499172214,address
439,USA,Texas,Houston,Dataprana La Marque,Dataprana,,"4995 Farm to Market Rd 1764, La Marque, Texas 77568",30 MW,,2025,29.383763,-95.030906,address
440,USA,Texas,Houston,"Lumen, 1124 Hardy Rd",Lumen,,"1124 Hardy Rd, Houston, Texas 77020",,,,29.770839021443,-95.351208413945,address
441,USA,Texas,Houston,Quasar Data Center,Quasar Data Center,,"1001 Texas Ave, Suite 310, Houston, Texas 77002",13.7 MW,,,29.759993216642,-95.362442948085,address
442,USA,Texas,Houston,Digital Houston Campus,Digital Realty,,"12001-12245 North Fwy, Houston, Texas 77060",,,,29.944588124816,-95.415938511634,address
443,USA,Texas,Houston,LOGIX Houston #1,LOGIX FIBER NETWORKS,,"1510 Primewest Parkway, Energy Corridor, Katy, Texas 77449",,,,29.792997739057,-95.746712037059,address
444,USA,Texas,Houston,Lighthouse Data Center,PS Lightwave,,"3960 Braxton Dr, Houston, Texas 77063",0.075 MW,"12,000 sq.f.",,29.723679325915,-95.509344883649,address
445,USA,Texas,Houston,Lumen Houston 1,Lumen,,"12001 1-45 North, Houston, Texas 77003",,,,33.507660,-94.614426,address
446,USA,Texas,Houston,Data Foundry - Houston 1,Data Foundry,,"5555 San Felipe St, Suite 625, Houston, Texas 77056",,"8,000 sq.f.",,29.750012892198,-95.472710699681,address
447,USA,Texas,Houston,TRG Houston Two HOU2,TRG Datacenters,Under Construction,"2626 Spring Cypress Rd, Spring, Texas 77388",24 MW,110000 sq.f.,2026,30.066026434779,-95.455736245303,address
448,USA,Texas,Houston,Serverfarm Houston Data Center CTX1,Serverfarm,,"15555 Cutten Rd, Houston, Texas 77070",,,2006,29.997197023616,-95.562175222658,address
449,USA,Texas,Houston,Data Foundry - Houston 2,Data Foundry,,"660 Greens Pkwy, Houston, Texas 77067",60 MW,"175,000 sq.f.",2015,29.94462814067,-95.423499198513,address
450,USA,Texas,Houston,DataBank HOU3 - Westway Park III,DataBank,,"11003 Corporate Centre Dr, Houston, Texas 77041",4.5 MW,"41,860 sq.f.",,29.841088314555,-95.5632430718,address
451,USA,Texas,Houston,"Lumen, 3939 Corporate Dr",Lumen,,"5959 Coprporate Drive, Houston, Texas 77036",,,,29.713069225927,-95.551484995083,address
452,USA,Texas,Houston,Verizon Houston,Verizon Communications Inc.,,"2401 Portsmouth St, Houston, Texas 77098",,,,29.733426514308,-95.416389468855,address
453,USA,Texas,Stratford,Lumen Stratford 1,Lumen,,"501 W Texas Avenue, Stratford, Texas 79084",,,,36.325557088807,-102.084186919027,address
454,USA,Texas,Snyder,Crusoe Snyder,Crusoe Cloud,Planned,"9301 Camp Springs Rd, Hermleigh, Texas 79526",25 MW,,,32.746484391853,-100.757967732542,address
455,USA,Texas,Corpus Christi,Lumen Corpus Christi 1,Lumen,,"4901 Westway Drive, Corpus Christi, Texas 78408",,,,27.793499061978,-97.45202691707,address
456,USA,Texas,Pecos,IONIC Digital Cedarvale,IONIC Digital,,"3013 Ranch Rd 516, Barstow, Texas 79719",234 MW,,,31.445577,-103.381833,address
457,USA,Texas,Pecos,Core Scientific Pecos,Core Scientific,,"1939 Farm to Market 2119, Pecos, Texas 79772",234 MW,,2022,31.540621,-103.814723,address
458,USA,Texas,Harlingen,Lumen Harlingen 2,Lumen,,"514 E Monroe Ave, Harlingen, Texas 78550",,,,26.193754316563,-97.691027434472,address
459,USA,Texas,Harlingen,Eneus Energy - Harlingen,Eneus Energy,Land Banked,"Gomez Rd & FM 509, Harlingen, Texas 78550",,,,26.242312600495,-97.627600558068,address
460,USA,Texas,Harlingen,Lumen Harlingen 1,Lumen,,"505 E. Monroe, Harlingen, Texas 78550",,,,26.193868907939,-97.691126903216,address
461,USA,Texas,Odessa Tx,Cipher Odessa,Cipher Mining Technologies Inc.,,"2901 Navasota Dr, Odessa, Texas 79766",207 MW,,,31.844918560045,-102.314644984529,address
462,USA,Texas,Dumas,Duos Edge AI - Dumas EDC,"Duos Edge AI, Inc.",,"421 W 4th St, Dumas, Texas 79029",,,,35.862013785017,-101.977624328844,address
463,USA,Texas,Wichita Falls,Skybox PowerCampus Texas DC9,Skybox Datacenters,Planned,"Hammon Rd & E Midwestern Pkwy, Wichita Falls, Texas 76310",,,,33.877781,-98.441819,address
464,USA,Texas,Wichita Falls,Skybox PowerCampus Texas DC2,Skybox Datacenters,Planned,"Hammon Rd & E Midwestern Pkwy, Wichita Falls, Texas 76310",,,,33.877781,-98.441819,address
465,USA,Texas,Wichita Falls,DataNovaX Pioneer Park,DataNovaX,,"2236 Airport Dr, Wichita Falls, Texas 76306",6 MW,"37,000 sq.f.",2024,33.953380,-98.524730,address
466,USA,Texas,Wichita Falls,Skybox PowerCampus Texas DC6,Skybox Datacenters,Planned,"Hammon Rd & E Midwestern Pkwy, Wichita Falls, Texas 76310",,,,33.877781,-98.441819,address
467,USA,Texas,Wichita Falls,Skybox PowerCampus Texas DC1,Skybox Datacenters,Planned,"Hammon Rd & E Midwestern Pkwy, Wichita Falls, Texas 76310",,,,33.877781,-98.441819,address
468,USA,Texas,Wichita Falls,Skybox PowerCampus Texas DC5,Skybox Datacenters,Planned,"Hammon Rd & E Midwestern Pkwy, Wichita Falls, Texas 76310",,,,33.877781,-98.441819,address
469,USA,Texas,Wichita Falls,Skybox PowerCampus Texas DC7,Skybox Datacenters,Planned,"Hammon Rd & E Midwestern Pkwy, Wichita Falls, Texas 76310",,,,33.877781,-98.441819,address
470,USA,Texas,Wichita Falls,IREN Childress,IREN (Iris Energy),,"620 Farm to Market Road 1033, Childress, Texas 79201",750 MW,,,34.384641,-100.056220,address
471,USA,Texas,Wichita Falls,Skybox PowerCampus Texas DC3,Skybox Datacenters,Planned,"Hammon Rd & E Midwestern Pkwy, Wichita Falls, Texas 76310",,,,33.877781,-98.441819,address
472,USA,Texas,Wichita Falls,Lumen Wichita Falls 1,Lumen,,"301 Lee St, Wichita Falls, Texas 76301",,,,33.919375813638,-98.491364831879,address
473,USA,Texas,Wichita Falls,Skybox PowerCampus Texas DC8,Skybox Datacenters,Planned,"Hammon Rd & E Midwestern Pkwy, Wichita Falls, Texas 76310",,,,33.877781,-98.441819,address
474,USA,Texas,Wichita Falls,IREN Horizon 1,IREN (Iris Energy),Planned,"620 Farm to Market Road 1033, Childress, Texas 79201",75 MW,,,34.384641,-100.056220,address
475,USA,Texas,Wichita Falls,Skybox PowerCampus Texas,Skybox Datacenters,Planned,"Hammon Rd & E Midwestern Pkwy, Wichita Falls, Texas 76310",,,,33.877781,-98.441819,address
476,USA,Texas,Wichita Falls,Skybox PowerCampus Texas DC4,Skybox Datacenters,Planned,"Hammon Rd & E Midwestern Pkwy, Wichita Falls, Texas 76310",,,,33.877781,-98.441819,address
477,USA,Texas,Abilene,Crusoe Abilene - Building 6,Crusoe Cloud,Under Construction,"5502 Spinks Rd, Abilene, Texas 79601",,,2026,32.494290,-99.793160,address
478,USA,Texas,Abilene,Crusoe Abilene - Building 7,Crusoe Cloud,Under Construction,"5502 Spinks Rd, Abilene, Texas 79601",,,2026,32.494290,-99.793160,address
479,USA,Texas,Abilene,Stargate Abilene (Crusoe Abilene Campus),Crusoe Cloud,,"5502 Spinks Rd, Abilene, Texas 79601",200 MW,980000 sq.f.,,32.494290,-99.793160,address
480,USA,Texas,Abilene,Crusoe Abilene - Building 8,Crusoe Cloud,Under Construction,"5502 Spinks Rd, Abilene, Texas 79601",,,2026,32.494290,-99.793160,address
481,USA,Texas,Abilene,Crusoe Abilene - Building 4,Crusoe Cloud,Under Construction,"5502 Spinks Rd, Abilene, Texas 79601",,,2026,32.494290,-99.793160,address
482,USA,Texas,Abilene,Crusoe Abilene - Building 2,Crusoe Cloud,,"5502 Spinks Rd, Abilene, Texas 79601",,,2025,32.494290,-99.793160,address
483,USA,Texas,Abilene,THM1A Data Center,Unknown Company,Under Construction,"Bean Road, Lueders, Texas 79533",,280000 sq.f.,,32.981550,-99.567407,address
484,USA,Texas,Abilene,Crusoe Abilene - Building 5,Crusoe Cloud,Under Construction,"5502 Spinks Rd, Abilene, Texas 79601",,,2026,32.494290,-99.793160,address
485,USA,Texas,Abilene,Crusoe Abilene - Building 1,Crusoe Cloud,,"5502 Spinks Rd, Abilene, Texas 79601",,,2025,32.494290,-99.793160,address
486,USA,Texas,Abilene,Duos Edge AI - Abilene EDC,"Duos Edge AI, Inc.",,"1850 Texas State Highway 351, Region 14 Education Service Center, Abilene, Texas 79601",,,,32.480837696009,-99.692611743203,address
487,USA,Texas,Abilene,Crusoe Abilene - Building 3,Crusoe Cloud,Under Construction,"5502 Spinks Rd, Abilene, Texas 79601",,,2026,32.494290,-99.793160,address
488,USA,Texas,Mcallen,Chase Tower McAllen,1547 Critical Systems Realty,,"1547 Critical Systems Realty, 200 S 10th St, Suite 1205, McAllen, Texas 78501",1.5 MW,,,26.202016798547,-98.230398810621,address
489,USA,Texas,Mcallen,MDC McAllen - MCA1,MDC Data Centers,,"200 South 10th Street, Suite 702, McAllen, Texas 78501",0.4 MW,,2011,26.202016798547,-98.230398810621,address
490,USA,Texas,Mcallen,Lumen McAllen 1,Lumen,,"906 Beech Avenue, McAllen, Texas 78505",,,,26.204454871639,-98.228809227052,address
491,USA,Texas,Mcallen,MDC McAllen - MCA2,MDC Data Centers,,"422 S 11th St, McAllen, Texas 78501",1 MW,,2020,26.199765534336,-98.231847349224,address
492,USA,Texas,Mcallen,T-Mobile McAllen,"T-Mobile US, Inc.",,"1400 E Upas Ave, McAllen, Texas 78501",,14784 sq.f.,,26.219271575807,-98.202079867479,address
493,USA,Texas,Colorado City,Cipher Barber Lake,Cipher Mining Technologies Inc.,,"951 Co Rd 204, Colorado City, Texas 79512",500 MW,,,32.400385,-100.911899,address
494,USA,Texas,Kermit,Cipher Black Pearl,Cipher Mining Technologies Inc.,,"11786 Co Rd 209, Wink, Texas 79789",300 MW,,2025,31.693000,-103.082266,address
495,USA,Arizona,Tucson,Simply Bits  Vault,Simply Bits LLLC,,"5225 N Sabino Canyon Rd, Tucson, Arizona 85750",,,,32.30217742241,-110.824045594726,address
496,USA,Arizona,Tucson,Lumen Tucson,Lumen,,"135 N. 6th Avenue, Tucson, Arizona 85701",,,,32.22430270436,-110.968693512942,address
497,USA,Arizona,Tucson,TECfusions Tucson,TECfusions,,"3701 E Columbia St, Tucson, Arizona 85714",34.6 MW,"213,000 sq.f.",,32.172466817267,-110.91283692896,address
498,USA,Arizona,Tucson,Winsor Colocation,Winsor Consulting Group,,"3821 E Broadway Blvd, Tucson, Arizona 85716",2 MW,"19,999 sq.f.",,32.221630148962,-110.911170518894,address
499,USA,Arizona,Tucson,Project Blue,Beale Infrastructure,Planned,"S Harrison Rd / E Brekke Rd / S Houghton Rd, Tucson, Arizona 85747",,,,32.104964,-110.784524,address
500,USA,Arizona,Tucson,Login DC2,"Login, LLC",,"1855 N 6th Ave, Tucson, Arizona 85705",1 MW,"4,000 sq.f.",2001,32.244993803523,-110.968865248205,address
501,USA,Arizona,Tucson,Ark Data Centers Tucson,Ark Data Centers,,"1215 E Pennsylvania St, Tucson, Arizona 85706",2 MW,"20,000 sq.f.",2013,32.171848883057,-110.95389698672,address
502,USA,Arizona,Tucson,Login DC1,"Login, LLC",,"4003 East Speedway Boulevard, Ste 119, Tucson, Arizona 85712",,,,32.236225746524,-110.907456171058,address
503,USA,Arizona,Tucson,FirstDigital Tucson,FirstDigital,,"3836 S Evans Blvd, Tucson, Arizona 85714",,,,32.177503660888,-110.954411635531,address
504,USA,Arizona,Nogales Az,MDC Nogales - NOG1,MDC Data Centers,,"81 N Sonoita Ave, Nogales, Arizona 85621",0.2 MW,,2019,31.335471985166,-110.943006646874,address
505,USA,Arizona,Phoenix,Amazon AWS PHX - Pecos Road Campus,Amazon AWS,Under Construction,"9848-10464 E Pecos Road, Mesa, Arizona 85212",,,,33.294410,-111.620520,address
506,USA,Arizona,Phoenix,Southwest Crossing Data Center 3,"Ryan Companies US, Inc.",Planned,"W Houser Rd, Building 3, Eloy, Arizona 85131",,"285,120 sq.f.",,32.777569,-111.663454,address
507,USA,Arizona,Phoenix,QTS Phoenix Campus,QTS Data Centers,,"1200 40th Street, Phoenix, Arizona 85008",,,,33.462325443037,-111.995132905682,address
508,USA,Arizona,Phoenix,Menlo Digital MD-PX1 - Building 5,Menlo Digital,Planned,"4801-4811 E Thistle Landing Dr, Building 5, Phoenix, Arizona 85044",,,,33.312992977218,-111.977074079146,address
509,USA,Arizona,Phoenix,DataBank PHX2 - Phoenix Sky Harbor,DataBank,,"615 North 48th Street, Phoenix, Arizona 85008",0.2 MW,"1,650 sq.f.",,33.45414622154,-111.978381077028,address
510,USA,Arizona,Phoenix,Apple Mesa Data Center,Apple,,"3740 S Signal Butte Road, Mesa, Arizona 85212",,,2016,33.346992,-111.604098,address
511,USA,Arizona,Phoenix,Project Baccara Campus,"Takanock, LLC",Planned,"14707-14323 W Olive Ave, Waddell, Arizona 85355",,,,33.565735455538,-112.367613396717,address
512,USA,Arizona,Phoenix,Microsoft El Mirage (PHX81),Microsoft,Under Construction,"12901 W Olive Ave, El Mirage, Arizona 85335",,,,33.565511169603,-112.337478831054,address
513,USA,Arizona,Phoenix,EdgeCore Phoenix Campus,EdgeCore,,"3856 S Everton Terrace, Mesa, Arizona 85212",336 MW,,,33.347345130838,-111.618515462128,address
514,USA,Arizona,Phoenix,RadiusDC Phoenix I DC1,RadiusDC,,"3402 E University Dr, Phoenix, Arizona 85034",25 MW,,2010,33.416684292717,-112.007501563157,address
515,USA,Arizona,Phoenix,Prime Phoenix - Building 3,Prime Data Centers,,"11753 W. Lower Buckeye #3, Avondale, Arizona 85323",48 MW,"128,000 sq.f.",,33.416940,-112.312530,address
516,USA,Arizona,Phoenix,GDC - Phoenix PH2 Data Center,"NTT DATA, Inc.",,"10256 E Elliot Rd, Mesa, Arizona 85212",,,,33.350042541927,-111.608594837495,address
517,USA,Arizona,Phoenix,Comarch Mesa,Comarch,,"3223 S Ellsworth Rd, Mesa, Arizona 85212",2 MW,,,33.356750,-111.635160,address
518,USA,Arizona,Phoenix,Google Mesa - Phase 2,Google,Planned,"E Elliot Rd & S Sossaman Rd, Building 2, Mesa, Arizona 85212",,,,33.350439875438,-111.670580567719,address
519,USA,Arizona,Phoenix,EdgeCore PH02,EdgeCore,Planned,"3856 S Everton Terrace, Mesa, Arizona 85212",108 MW,216.972 sq.f.,,33.347345130838,-111.618515462128,address
520,USA,Arizona,Phoenix,DataBank PHX1 - Downtown Phoenix,DataBank,,"3110 N Central St, Phoenix, Arizona 85012",0.78 MW,"8,240 sq.f.",,33.484086834626,-112.073845283173,address
521,USA,Arizona,Phoenix,Iron Mountain Data Centers AZP-3,Iron Mountain Data Centers,Under Construction,"1110 N 52nd St, Phoenix, Arizona 85008",36 MW,,,33.461287869164,-111.969835105171,address
522,USA,Arizona,Phoenix,EdgeCore Florence Tech Park - Building 7,EdgeCore,Planned,"E Arizona Farms Rd & N Attaway Rd, Florence, Arizona 85143",72 MW,,,33.118612,-111.473570,address
523,USA,Arizona,Phoenix,Aligned PHX09,Aligned Data Centers,Planned,"3151 W Behrend Dr, Chandler, Arizona 85027",,,,33.665612955927,-112.131143139825,address
524,USA,Arizona,Phoenix,Meta Mesa - Building 2,Meta,,"3841 S Ellsworth Rd, Mesa, Arizona 85212",,,2025,33.341422,-111.631332,address
525,USA,Arizona,Phoenix,Csquare - Phoenix PHX3-A,Csquare,,"1301 W University Drive, Mesa, Arizona 85201",6.7 MW,"73,500 sq.f.",,33.422094579617,-111.858670522809,address
526,USA,Arizona,Phoenix,Meta Mesa - Building 3,Meta,Planned,"3841 S Ellsworth Rd, Mesa, Arizona 85212",,,,33.341422,-111.631332,address
527,USA,Arizona,Phoenix,Lumen Phoenix 1,Lumen,,"811 South 16th Street, Phoenix, Arizona 85034",,,,33.441168914163,-112.047704644769,address
528,USA,Arizona,Phoenix,Meta Mesa - Building 5,Meta,Planned,"3841 S Ellsworth Rd, Mesa, Arizona 85212",,,,33.341422,-111.631332,address
529,USA,Arizona,Phoenix,ColoBarn Phoenix Data Center,ColoBarn,,"8905 S Beck Ave, Tempe, Arizona 85284",2 MW,18000 sq.f.,,33.332651664196,-111.958538935375,address
530,USA,Arizona,Phoenix,Microsoft GoodyearAirpark (PHX10),Microsoft,,"W Broadway Rd, Goodyear, Arizona 85338",,,2019,33.406507,-112.371289,address
531,USA,Arizona,Phoenix,QTS Phoenix-Van Buren,QTS Data Centers,,"120 East Van Buren Street, Phoenix, Arizona 85004",32 MW,"108,000 sq.f.",,33.451457935422,-112.072243934948,address
532,USA,Arizona,Phoenix,GDC - Phoenix PH5 Data Center,"NTT DATA, Inc.",Planned,"10256 E Elliot Rd, Mesa, Arizona 85212",,,,33.350042541927,-111.608594837495,address
533,USA,Arizona,Phoenix,Prime Phoenix - Building 5,Prime Data Centers,Planned,"11753 W. Lower Buckeye #5, Avondale, Arizona 85323",48 MW,"128,000 sq.f.",,33.416940,-112.312530,address
534,USA,Arizona,Phoenix,Prime Phoenix Data Center Campus,Prime Data Centers,Planned,"11753 W Lower Buckeye Rd, Avondale, Arizona 85353",240 MW,"640,000 sq.f.",,33.420592727728,-112.311770891023,address
535,USA,Arizona,Phoenix,Aligned PHX07,Aligned Data Centers,,"8785 N Reems Rd, Waddell, Arizona 85355",,,2025,33.562969225178,-112.393535271722,address
536,USA,Arizona,Phoenix,STACK Infrastructure PHX01C,STACK INFRASTRUCTURE,Planned,"W Lower Buckeye Rd & S Litchfield Rd, Avondale, Arizona 85323",,,,33.420855901493,-112.357815928096,address
537,USA,Arizona,Phoenix,EdgeCore Florence Tech Park - Building 10,EdgeCore,Planned,"E Arizona Farms Rd & N Attaway Rd, Florence, Arizona 85143",72 MW,,,33.118612,-111.473570,address
538,USA,Arizona,Phoenix,Microsoft Goodyear Airpark (PHX13),Microsoft,,"W Broadway Rd, Goodyear, Arizona 85338",,,,33.406507,-112.371289,address
539,USA,Arizona,Phoenix,LexisNexis Scottsdale,LexisNexis,,"8521 E Princess Dr, Scottsdale, Arizona 85255",24 MW,"86,000 sq.f.",,33.644735588161,-111.897307935494,address
540,USA,Arizona,Phoenix,Prime Phoenix - Building 1,Prime Data Centers,Planned,"11753 W. Lower Buckeye #1, Avondale, Arizona 85323",48 MW,"128,000 sq.f.",,33.416940,-112.312530,address
541,USA,Arizona,Phoenix,Vermaland Pinal County,Vermaland,Planned,"E Sasco Rd, Eloy, Arizona 85131",,,,32.567096,-111.345539,address
542,USA,Arizona,Phoenix,STACK Infrastructure PHX01B,STACK INFRASTRUCTURE,Planned,"W Lower Buckeye Rd & S Litchfield Rd, Avondale, Arizona 85323",,,,33.420855901493,-112.357815928096,address
543,USA,Arizona,Phoenix,CyrusOne Phoenix Campus,CyrusOne Data Centers,,"2335 South Ellis St, Chandler, Arizona 85286",169 MW,"2,000,000 sq.f.",,33.270861,-111.882572,address
544,USA,Arizona,Phoenix,US Signal Phoenix AZ01,"US Signal Company, LLC",,"1655 W Sunrise Blvd, Gilbert, Arizona 85233",0.5 MW,6000 sq.f.,1998,33.355306846036,-111.825816902801,address
545,USA,Arizona,Phoenix,CyrusOne PHX1 - Chandler,CyrusOne Data Centers,,"2335 South Ellis St., Building 3, Chandler, Arizona 85286",9 MW,"60,000 sq.f.",2012,33.270861,-111.882572,address
546,USA,Arizona,Phoenix,Iron Mountain Data Centers AZS-1,Iron Mountain Data Centers,,"8521 E Princess Drive, Scottsdale, Arizona 85255",5.8 MW,121000 sq.f.,2007,33.644735588161,-111.897307935494,address
547,USA,Arizona,Phoenix,Compass Goodyear - Building 6,Compass Datacenters,Under Construction,"850 S Bullard Ave, Building 6, Goodyear, Arizona 85338",,,,33.43626436584,-112.375685556583,address
548,USA,Arizona,Phoenix,Compass Goodyear - Building 8,Compass Datacenters,Planned,"850 S Bullard Ave, Building 8, Goodyear, Arizona 85338",,,,33.43626436584,-112.375685556583,address
549,USA,Arizona,Phoenix,Aligned PHX12,Aligned Data Centers,Planned,"8805 N Reems Rd, Waddell, Arizona 85355",,,,33.563253892545,-112.393530306573,address
550,USA,Arizona,Phoenix,Meta Mesa - Building 4,Meta,Planned,"3841 S Ellsworth Rd, Mesa, Arizona 85212",,,,33.341422,-111.631332,address
551,USA,Arizona,Phoenix,CGI Phoenix Data Center,CGI,,"15 km from downtown, Phoenix, Arizona 85044",,,,33.320434,-111.989109,address
552,USA,Arizona,Phoenix,EdgeCore Florence Tech Park - Building 2,EdgeCore,Planned,"E Arizona Farms Rd & N Attaway Rd, Florence, Arizona 85143",72 MW,,,33.118612,-111.473570,address
553,USA,Arizona,Phoenix,NexusTek Data Center,NexusTek,,"1919 W Lone Cactus Dr, Phoenix, Arizona 85027",,,,33.680079557172,-112.101494605645,address
554,USA,Arizona,Phoenix,ColoHouse Phoenix,ColoHouse,,"2335 South Ellis Street, Chandler, Arizona 85286",,,,33.270861,-111.882572,address
555,USA,Arizona,Phoenix,Google Mesa - Phase 1,Google,Under Construction,"E Elliot Rd & S Sossaman Rd, Building 1, Mesa, Arizona 85212",,,,33.350439875438,-111.670580567719,address
556,USA,Arizona,Phoenix,Cogent Data Center - Phoenix 2,"Cogent Communications, Inc.",,"1530 E Roeser Rd, Phoenix, Arizona 85040",12 MW,"24,460 sq.f.",,33.399691183894,-112.047297990153,address
557,USA,Arizona,Phoenix,LightEdge - Phoenix,LightEdge,,"120 East Van Buren, Phoenix, Arizona 85004",0.51 MW,"4,854 sq.f.",,33.451457935422,-112.072243934948,address
558,USA,Arizona,Phoenix,CyrusOne PHX5 - Chandler,CyrusOne Data Centers,,"2405 South Ellis St., Building 2, Chandler, Arizona 85286",9 MW,"110,000 sq.f.",2018,33.379328255161,-112.110314448313,address
559,USA,Arizona,Phoenix,Southwest Crossing Data Center 1,"Ryan Companies US, Inc.",Planned,"W Houser Rd, Building 1, Eloy, Arizona 85131",,"285,120 sq.f.",,32.777569,-111.663454,address
560,USA,Arizona,Phoenix,Compass PHX II - Building 2,Compass Datacenters,Planned,"W Peoria Ave & N El Mirage Rd, Building 2, El Mirage, Arizona 85335",36 MW,"170,000 sq.f.",,33.579957878223,-112.324511422668,address
561,USA,Arizona,Phoenix,Project Baccara - Building 2,"Takanock, LLC",Planned,"14707-14323 W Olive Ave, Waddell, Arizona 85355",,,2030,33.565735455538,-112.367613396717,address
562,USA,Arizona,Phoenix,EdgeCore Florence Tech Park - Building 5,EdgeCore,Planned,"E Arizona Farms Rd & N Attaway Rd, Florence, Arizona 85143",72 MW,,,33.118612,-111.473570,address
563,USA,Arizona,Phoenix,QTS Avondale,QTS Data Centers,Land Banked,"S Avondale Blvd & W Lower Buckeye Rd, Avondale, Arizona 85353",,,,33.420693898826,-112.306286438117,address
564,USA,Arizona,Phoenix,Prologis Sky Harbor Business Center,Prologis,,"1710 E Grant St, Phoenix, Arizona 85034",,,,33.441432468029,-112.045307017642,address
565,USA,Arizona,Phoenix,Menlo Digital MD-PX1 - Building 4,Menlo Digital,Planned,"4801-4811 E Thistle Landing Dr, Building 4, Phoenix, Arizona 85044",,,,33.312992977218,-111.977074079146,address
566,USA,Arizona,Phoenix,Aligned Waddell Campus,Aligned Data Centers,,"8805-8785 N Reems Rd, Waddell, Arizona 85355",,,,33.564660,-112.393410,address
567,USA,Arizona,Phoenix,Microsoft Goodyear Airpark Campus,Microsoft,,"W Broadway Rd, Goodyear, Arizona 85338",,,,33.406507,-112.371289,address
568,USA,Arizona,Phoenix,Compass Goodyear - Building 7,Compass Datacenters,Under Construction,"850 S Bullard Ave, Building 7, Goodyear, Arizona 85338",,,,33.43626436584,-112.375685556583,address
569,USA,Arizona,Phoenix,Microsoft Goodyear (PHX71),Microsoft,,"3785 N Citrus Rd, Goodyear, Arizona 85395",,,,33.489853789127,-112.44408350743,address
570,USA,Arizona,Phoenix,Southwest Crossing Data Center Campus,"Ryan Companies US, Inc.",Planned,"W Houser Rd, Eloy, Arizona 85131",400 MW,"1,250,000 sq.f.",,32.777569,-111.663454,address
571,USA,Arizona,Phoenix,Compass Goodyear - Building 3,Compass Datacenters,,"850 S Bullard Ave, Building 3, Goodyear, Arizona 85338",,,,33.43626436584,-112.375685556583,address
572,USA,Arizona,Phoenix,Compass Goodyear - Building 2,Compass Datacenters,,"850 S Bullard Ave, Building 2, Goodyear, Arizona 85338",,,,33.43626436584,-112.375685556583,address
573,USA,Arizona,Phoenix,Compass Goodyear - Building 1,Compass Datacenters,,"850 S Bullard Ave, Building 3, Goodyear, Arizona 85338",,,,33.43626436584,-112.375685556583,address
574,USA,Arizona,Phoenix,QTS Glendale,QTS Data Centers,Under Construction,"4001 N 159th Ave, Glendale, Arizona 85305",,,,33.534404,-112.260444,address
575,USA,Arizona,Phoenix,Southwest Crossing Data Center 2,"Ryan Companies US, Inc.",Planned,"W Houser Rd, Building 1, Eloy, Arizona 85131",,"285,120 sq.f.",,32.777569,-111.663454,address
576,USA,Arizona,Phoenix,Evocative PHX1,Evocative Data Centers,,"2500 W Union Hills Drive, Phoenix, Arizona 85048",69 MW,,,33.654769152551,-112.111874291006,address
577,USA,Arizona,Phoenix,EdgeCore PH04,EdgeCore,Planned,"3856 S Everton Terrace, Mesa, Arizona 85212",,207.680 sq.f.,,33.347345130838,-111.618515462128,address
578,USA,Arizona,Phoenix,HBS Phoenix,Heartland Business System,,"10201 S 51st St, Suite 180, Phoenix, Arizona 85044",,,,33.354194502483,-111.972609084994,address
579,USA,Arizona,Phoenix,Microsoft El Mirage (PHX82),Microsoft,Planned,"12901 W Olive Ave, El Mirage, Arizona 85335",,,,33.565511169603,-112.337478831054,address
580,USA,Arizona,Phoenix,GDC - Phoenix PH6 Data Center,"NTT DATA, Inc.",Planned,"10256 E Elliot Rd, Mesa, Arizona 85212",,195400 sq.f.,,33.350042541927,-111.608594837495,address
581,USA,Arizona,Phoenix,Iron Mountain Data Centers AZP-2,Iron Mountain Data Centers,,"4802 East Van Buren Street, Phoenix, Arizona 85008",48 MW,,2019,33.451170191079,-111.978319139232,address
582,USA,Arizona,Phoenix,Vantage AZ15 - Phoenix,Vantage Data Centers,Planned,"45 S Bullard Ave, Goodyear, Arizona 85338",,512000 sq.f.,,33.449351137679,-112.375427794855,address
583,USA,Arizona,Phoenix,Google Mesa Campus,Google,Under Construction,"E Elliot Rd & S Sossaman Rd, Mesa, Arizona 85212",,,,33.350439875438,-111.670580567719,address
584,USA,Arizona,Phoenix,EdgeConneX Phoenix - EDCPHX01,EdgeConneX,,"3011 S. 52nd St, Suite 107, Tempe, Arizona 85282",4.5 MW,"17,300 sq.f.",,33.396266584649,-111.970578146011,address
585,USA,Arizona,Phoenix,H5 Data Centers Phoenix,H5 Data Centers,,"2600 W. Germann Rd., Chandler, Arizona 85286",26 MW,"180,000 sq.f.",2011,33.276093004107,-111.884895456045,address
586,USA,Arizona,Phoenix,Prime Phoenix - Building 4,Prime Data Centers,Planned,"11753 W. Lower Buckeye #4, Avondale, Arizona 85323",48 MW,"128,000 sq.f.",,33.416940,-112.312530,address
587,USA,Arizona,Phoenix,Omnis Data Center,Omnis Network,,"1005 W Geneva Dr, Tempe, Arizona 85282",1.25 MW,,,33.394860976347,-111.952219621719,address
588,USA,Arizona,Phoenix,Raeden Phoenix,Raeden,,"1710 E Grant St, Phoenix, Arizona 85034",1.3 MW,6000 sq.f.,,33.441432468029,-112.045307017642,address
589,USA,Arizona,Phoenix,Hassayampa Ranch,Arizona Land Consulting (ALC),Planned,"Tonopah Salome Hwy, Buckeye, Arizona 85354",,,,33.488222,-112.765762,address
590,USA,Arizona,Phoenix,Aligned PHX06,Aligned Data Centers,,"2500 S Price Rd, Chandler, Arizona 85286",,,,33.268643028313,-111.889126621773,address
591,USA,Arizona,Phoenix,ClearData Data Center,Cleardata Networks,,"4250 E Camelback Rd, Suite K-300, Phoenix, Arizona 85018",,,,33.509688984556,-111.989790044135,address
592,USA,Arizona,Phoenix,Microsoft El Mirage (PHX80),Microsoft,,"12901 W Olive Ave, El Mirage, Arizona 85335",,,,33.565511169603,-112.337478831054,address
593,USA,Arizona,Phoenix,11:11 Systems Scottsdale,11:11 Systems,,"11:11 Systems, 7499 E Paradise Ln, Scottsdale, Arizona 85260",,"16,000 sq.f.",,33.595514788158,-111.920469843723,address
594,USA,Arizona,Phoenix,GDC - Phoenix PH4 Data Center,"NTT DATA, Inc.",Under Construction,"10256 E Elliot Rd, Mesa, Arizona 85212",,,,33.350042541927,-111.608594837495,address
595,USA,Arizona,Phoenix,EdgeCore PH01,EdgeCore,,"3856 S Everton Terrace, Mesa, Arizona 85212",26 MW,200.880 sq.f.,,33.347345130838,-111.618515462128,address
596,USA,Arizona,Phoenix,Lumen Phoenix 4,Lumen,,"3220 N 3rd St, Phoenix, Arizona 85012",,,,33.484877249508,-112.069487857795,address
597,USA,Arizona,Phoenix,CyrusOne PHX6 - Chandler,CyrusOne Data Centers,,"2605 South Ellis St., Building 8, Chandler, Arizona 85286",18 MW,"120,000 sq.f.",2017,33.268952,-111.882289,address
598,USA,Arizona,Phoenix,Aligned PHX13,Aligned Data Centers,Under Construction,"8805 N Reems Rd, Waddell, Arizona 85355",,,,33.563253892545,-112.393530306573,address
599,USA,Arizona,Phoenix,Aligned PHX08,Aligned Data Centers,Planned,"3202 W Behrend Dr, Chandler, Arizona 85027",,,,33.665724351082,-112.131552109531,address
600,USA,Arizona,Phoenix,Pinal Airpark Road,Beale Infrastructure,Planned,"E Pinal Airpark Rd & I-10, Marana, Arizona 85653",,,,32.506156,-111.293921,address
601,USA,Arizona,Phoenix,Vantage AZ13 - Phoenix,Vantage Data Centers,Planned,"45 S Bullard Ave, Goodyear, Arizona 85338",,,,33.449351137679,-112.375427794855,address
602,USA,Arizona,Phoenix,CyrusOne PHX8 - Chandler,CyrusOne Data Centers,,"2705 South Ellis St., Building 9, Chandler, Arizona 85286",18 MW,,,33.266330,-111.883590,address
603,USA,Arizona,Phoenix,DCX Goodyear,DCX,,"16422 W Commerce Dr, Goodyear, Arizona 85338",12 MW,,,33.410710914921,-112.412093042757,address
604,USA,Arizona,Phoenix,STACK Infrastructure PHX01A,STACK INFRASTRUCTURE,Planned,"W Lower Buckeye Rd & S Litchfield Rd, Avondale, Arizona 85323",,,,33.420855901493,-112.357815928096,address
605,USA,Arizona,Phoenix,Microsoft El Mirage (PHX83),Microsoft,Planned,"12901 W Olive Ave, El Mirage, Arizona 85335",,,,33.565511169603,-112.337478831054,address
606,USA,Arizona,Phoenix,Amazon AWS PHX - 10464 E Pecos Road,Amazon AWS,Under Construction,"10464 E Pecos Rd, Mesa, Arizona 85212",,227000 sq.f.,,33.295439,-111.607102,address
607,USA,Arizona,Phoenix,EdgeCore Florence Tech Park - Building 6,EdgeCore,Planned,"E Arizona Farms Rd & N Attaway Rd, Florence, Arizona 85143",72 MW,,,33.118612,-111.473570,address
608,USA,Arizona,Phoenix,Edged Phoenix,Edged Energy,Under Construction,"8811 E Warner Rd, Gilbert, Arizona 85296",36 MW,"126,000 sq.f.",,33.335163,-111.644101,address
609,USA,Arizona,Phoenix,Microsoft Goodyear Airpark (PHX14),Microsoft,,"W Broadway Rd, Goodyear, Arizona 85338",,,,33.406507,-112.371289,address
610,USA,Arizona,Phoenix,Liquid Web Phoenix,Liquid Web,,"7025 N Scottsdale Rd, Suite 320, Scottsdale, Arizona 85253",,,2010,33.540695,-111.924705,address
611,USA,Arizona,Phoenix,Vantage AZ14 - Phoenix,Vantage Data Centers,Planned,"45 S Bullard Ave, Goodyear, Arizona 85338",,512000 sq.f.,,33.449351137679,-112.375427794855,address
612,USA,Arizona,Phoenix,Amazon AWS PHX - 9848 E Pecos Road,Amazon AWS,Under Construction,"9848 E Pecos Rd, Mesa, Arizona 85212",,227000 sq.f.,,33.294410,-111.620520,address
